objectid,number,name,address,latitude,longitude,status,bike_stands,available_bike_stands,available_bikes,bonus,banking,last_update,CreationDate,Creator,EditDate,Editor,x,y
1,7022,07022 - PONT DE L'ALMA,3 AVENUE BOSQUET - 75007 PARIS,48.8616405,2.30225034,OPEN,69,59,10,0,1,5/16/2013 6:56:42 PM,5/15/2013 7:37:16 PM,VotreNom,5/16/2013 6:57:39 PM,VotreNom,2.30225034417599,48.8616404995763
2,13055,13055 - LAGROUA,18 RUE MARIE ANDREE LAGROUA - 75013 PARIS,48.82859528,2.38022061,OPEN,61,43,17,0,1,5/16/2013 7:00:33 PM,5/15/2013 7:37:16 PM,VotreNom,5/16/2013 7:01:40 PM,VotreNom,2.3802206062661,48.8285952838574
3,2015,02015 - OPERA - CAPUCINES,25 RUE LOUIS LE GRAND - 75002 PARIS,48.87050894,2.33405446,OPEN,31,26,5,0,1,5/16/2013 7:03:51 PM,5/15/2013 7:37:16 PM,VotreNom,5/16/2013 7:04:39 PM,VotreNom,2.33405446193932,48.8705089372039
4,21704,21704 - REPUBLIQUE (VANVES),2 RUE DE LA REPUBLIQUE - 92170 VANVES,48.8217027,2.28539562,OPEN,25,0,25,0,1,5/16/2013 7:03:59 PM,5/15/2013 7:37:16 PM,VotreNom,5/16/2013 7:04:39 PM,VotreNom,2.28539562482843,48.8217026998931
5,31001,31001 - LAGNY (MONTREUIL),96 RUE DE LAGNY - 93100 MONTREUIL,48.8492303,2.42142994,OPEN,27,25,0,0,1,5/16/2013 6:57:54 PM,5/15/2013 7:37:16 PM,VotreNom,5/16/2013 6:58:39 PM,VotreNom,2.42142994000702,48.8492303008648
6,20131,20131 - REPOS,41 RUE DU REPOS - 75020 PARIS,48.85935852,2.38961314,OPEN,33,8,25,0,1,5/16/2013 7:04:40 PM,5/15/2013 7:37:16 PM,VotreNom,5/16/2013 7:05:41 PM,VotreNom,2.38961313668447,48.8593585235927
7,18048,18048 - PORTE DE LA CHAPELLE,29 BOULEVARD NEY - 75018 PARIS,48.89838502,2.36087735,OPEN,72,39,31,0,1,5/16/2013 7:05:08 PM,5/15/2013 7:37:16 PM,VotreNom,5/16/2013 7:05:41 PM,VotreNom,2.36087734922713,48.8983850226507
8,35005,35005 - GENERAL LECLERC (PANTIN),QUAI DE L'AISNE/AVENUE DU GENERAL LECLERC 93500 PANTIN,48.89571395,2.40057189,OPEN,27,13,14,0,1,5/16/2013 6:57:51 PM,5/15/2013 7:37:16 PM,VotreNom,5/16/2013 6:58:39 PM,VotreNom,2.40057189442728,48.8957139498245
9,13017,13017 - NATIONALE,167 RUE NATIONALE - 75013 PARIS,48.83252708,2.36235441,OPEN,33,27,6,0,1,5/16/2013 7:00:56 PM,5/15/2013 7:37:16 PM,VotreNom,5/16/2013 7:01:40 PM,VotreNom,2.36235441039215,48.832527083973
10,34010,34010 - DIDEROT 2 (SAINT OUEN),FACE 61-63 RUE DIDEROT- 93400 SAINT OUEN,48.91157046,2.33391013,OPEN,50,38,12,0,1,5/16/2013 7:04:20 PM,5/15/2013 7:37:16 PM,VotreNom,5/16/2013 7:04:39 PM,VotreNom,2.33391012712924,48.9115704593083
11,42704,42704 - ROSSEL (LE KREMLIN BICETRE),RUE ROSSEL / AVENUE DE LA CONVENTION - 94270 LE KREMLIN BICETRE,48.81201281,2.35697189,OPEN,25,24,1,1,1,5/16/2013 6:59:10 PM,5/15/2013 7:37:16 PM,VotreNom,5/16/2013 6:59:44 PM,VotreNom,2.3569718932875,48.812012814287
12,7020,07020 - CLER,FACE 3 RUE DU CHAMP DE MARS - 75007 PARIS,48.8566411,2.30659853,OPEN,57,0,56,0,1,5/16/2013 7:02:09 PM,5/15/2013 7:37:16 PM,VotreNom,5/16/2013 7:02:40 PM,VotreNom,2.30659853411185,48.8566411001182
13,3009,03009 - TEMPLE 113,76 RUE DU TEMPLE - 75003 PARIS,48.86158116,2.35660934,OPEN,18,1,17,0,1,5/16/2013 7:02:35 PM,5/15/2013 7:37:16 PM,VotreNom,5/16/2013 7:03:41 PM,VotreNom,2.35660934144382,48.861581157731
14,1027,01027 - BERGER,49 RUE BERGER - 75001 PARIS,48.86223872,2.34196094,OPEN,21,3,18,0,1,5/16/2013 6:59:23 PM,5/15/2013 7:37:16 PM,VotreNom,5/16/2013 6:59:44 PM,VotreNom,2.34196093795571,48.8622387170472
15,18045,18045 - GANNERON,2 RUE PIERRE GINIER - 75018 PARIS,48.88662715,2.32629369,OPEN,16,11,5,1,1,5/16/2013 7:03:47 PM,5/15/2013 7:37:16 PM,VotreNom,5/16/2013 7:04:39 PM,VotreNom,2.32629368931647,48.886627148561
16,15031,15031 - THEATRE,60 RUE DU THEATRE - 75015 PARIS,48.84817034,2.28990665,OPEN,53,6,47,0,1,5/16/2013 7:04:20 PM,5/15/2013 7:37:16 PM,VotreNom,5/16/2013 7:04:39 PM,VotreNom,2.28990664645755,48.8481703413652
17,31705,31705 - CHAMPEAUX (BAGNOLET),RUE DES CHAMPEAUX (PRES DE LA GARE ROUTIERE) - 93170 BAGNOLET,48.86452782,2.41617072,OPEN,50,10,30,1,1,5/16/2013 7:04:39 PM,5/15/2013 7:37:16 PM,VotreNom,5/16/2013 7:05:41 PM,VotreNom,2.41617072442593,48.8645278209515
18,19039,19039 - PAILLERON,6 RUE EDOUARD PAILLERON - 75019 PARIS,48.87977525,2.37483435,OPEN,24,17,6,0,1,5/16/2013 7:04:52 PM,5/15/2013 7:37:16 PM,VotreNom,5/16/2013 7:05:41 PM,VotreNom,2.37483435116484,48.8797752488603
19,9005,09005 - SQUARE D'ANVERS,95 RUE DE DUNKERQUE - 75009 PARIS,48.88263348,2.34488441,OPEN,33,33,0,1,1,5/16/2013 7:04:33 PM,5/15/2013 7:37:16 PM,VotreNom,5/16/2013 7:05:41 PM,VotreNom,2.34488440621224,48.8826334843108
20,7019,07019 - ECOLE MILITAIRE,85 AVENUE BOSQUET - 75007 PARIS,48.85495117,2.30547863,OPEN,47,11,36,0,1,5/16/2013 7:04:45 PM,5/15/2013 7:37:16 PM,VotreNom,5/16/2013 7:05:41 PM,VotreNom,2.3054786341957,48.8549511680067
21,23008,23008 - REPUBLIQUE (LEVALLOIS),PLACE DE LA REPUBLIQUE - 92300 LEVALLOIS,48.89319468,2.28891416,OPEN,25,0,24,0,1,5/16/2013 7:04:30 PM,5/15/2013 7:37:16 PM,VotreNom,5/16/2013 7:05:41 PM,VotreNom,2.28891416005665,48.8931946753649
22,19023,19023 - MANIN SIMON BOLIVAR,FACE 1 RUE MANIN - 75019 PARIS,48.87649965,2.37940736,OPEN,23,14,8,1,1,5/16/2013 7:04:06 PM,5/15/2013 7:37:16 PM,VotreNom,5/16/2013 7:04:39 PM,VotreNom,2.37940736259913,48.8764996541267
23,15041,15041 - LABROUSTE,13 RUE FRANQUET - 75015 PARIS,48.83285391,2.30689848,OPEN,36,31,5,0,1,5/16/2013 7:02:37 PM,5/15/2013 7:37:16 PM,VotreNom,5/16/2013 7:03:41 PM,VotreNom,2.30689847820818,48.832853908277
24,17044,17044 - PORTE DE SAINT OUEN,1 AVENUE DE LA PORTE DE SAINT OUEN - 75017 PARIS,48.89792241,2.32851451,OPEN,42,23,19,0,1,5/16/2013 7:03:23 PM,5/15/2013 7:37:16 PM,VotreNom,5/16/2013 7:03:41 PM,VotreNom,2.32851451022192,48.8979224085451
25,19007,19007 - OURCQ-FLANDRES,139 AVENUE DE FLANDRE - 75019 PARIS,48.89270999,2.37919975,OPEN,30,22,8,0,1,5/16/2013 7:04:23 PM,5/15/2013 7:37:16 PM,VotreNom,5/16/2013 7:04:39 PM,VotreNom,2.37919974802494,48.8927099920707
26,18021,18021 - MARCADET - RAMEY,98 RUE MARCADET - 75018 PARIS,48.89092238,2.34498648,OPEN,20,14,6,1,1,5/16/2013 6:56:19 PM,5/15/2013 7:37:16 PM,VotreNom,5/16/2013 6:56:39 PM,VotreNom,2.34498648211056,48.890922382968
27,15002,15002 - BOURDELLE,26 AVENUE DU MAINE - 75015 PARIS,48.84308532,2.32026395,OPEN,17,13,4,0,1,5/16/2013 6:57:30 PM,5/15/2013 7:37:16 PM,VotreNom,5/16/2013 6:58:39 PM,VotreNom,2.32026394678476,48.843085317466
28,2014,02014 - SAINT AUGUSTIN,13 RUE DAUNOU - 75002 PARIS,48.86911315,2.33251511,OPEN,16,13,2,0,1,5/16/2013 7:05:08 PM,5/15/2013 7:37:16 PM,VotreNom,5/16/2013 7:05:41 PM,VotreNom,2.33251510526855,48.8691131525953
29,13041,13041 - PORTE D'IVRY,4 AVENUE D'IVRY - 75013 PARIS,48.82196244,2.3685287,OPEN,50,49,0,0,1,5/16/2013 7:04:58 PM,5/15/2013 7:37:16 PM,VotreNom,5/16/2013 7:05:41 PM,VotreNom,2.36852869997215,48.8219624410175
30,907,00907 - FOIRE DU TRONE,FOIRE DU TRONE : PLACE DU CARDINAL LAVIGERIE - 75012 PARIS,48.83241627,2.40306357,OPEN,20,6,14,0,1,5/16/2013 7:04:20 PM,5/15/2013 7:37:16 PM,VotreNom,5/16/2013 7:04:39 PM,VotreNom,2.40306356877087,48.8324162722019
31,21009,21009 - LECORBUSIER (BOULOGNE-BILLANCOURT),FACE AU 1 RUE LECORBUSIER - 92100 BOULOGNE-BILLANCOURT,48.8379983,2.24084666,OPEN,46,8,37,0,1,5/16/2013 7:04:36 PM,5/15/2013 7:37:16 PM,VotreNom,5/16/2013 7:05:41 PM,VotreNom,2.24084666482121,48.8379982952818
32,18042,18042 - PIGALLE GERMAIN PILLON,FACE 36 BOULEVARD DE CLICHY - 75018 PARIS,48.88272809,2.33626264,OPEN,21,7,13,1,1,5/16/2013 7:04:01 PM,5/15/2013 7:37:16 PM,VotreNom,5/16/2013 7:04:39 PM,VotreNom,2.33626263901661,48.8827280905451
33,17020,17020 - NICARAGUA,49 RUE JOUFFROY D'ABBANS - 75017 PARIS,48.88506994,2.30708322,OPEN,26,25,1,0,1,5/16/2013 7:00:19 PM,5/15/2013 7:37:16 PM,VotreNom,5/16/2013 7:00:40 PM,VotreNom,2.30708321666449,48.8850699436711
34,33011,33011 - FAURE (AUBERVILLIERS),FACE 172-174 BOULEVARD FELIX FAURE - 93300 AUBERVILLIERS,48.91139369,2.37528132,OPEN,28,27,1,0,1,5/16/2013 6:57:14 PM,5/15/2013 7:37:16 PM,VotreNom,5/16/2013 6:57:39 PM,VotreNom,2.37528131997497,48.9113936890419
35,13110,13110 - MOULIN DE LA POINTE,66 RUE DU MOULIN DE LA POINTE - 75013 PARIS,48.82103929,2.35634514,OPEN,22,8,12,0,1,5/16/2013 7:04:41 PM,5/15/2013 7:37:16 PM,VotreNom,5/16/2013 7:05:41 PM,VotreNom,2.35634514417297,48.8210392869898
36,22402,22402 - JAURES (MALAKOFF),10 AVENUE JEAN JAURES - 92240 MALAKOFF,48.82146008,2.30289946,OPEN,27,43,7,0,1,5/16/2013 7:02:40 PM,5/15/2013 7:37:16 PM,VotreNom,5/16/2013 7:03:41 PM,VotreNom,2.30289945996595,48.8214600797735
37,19004,19004 - QUAI DE LA LOIRE,4 QUAI DE LA LOIRE - 75019 PARIS,48.88339734,2.37107452,OPEN,16,1,13,0,1,5/16/2013 7:04:52 PM,5/15/2013 7:37:16 PM,VotreNom,5/16/2013 7:05:41 PM,VotreNom,2.37107452298014,48.8833973385453
38,13018,13018 - AURIOL CHEVALERET,1 RUE BRUANT - 75013 PARIS,48.83484845,2.3668265,OPEN,25,22,3,0,1,5/16/2013 7:04:03 PM,5/15/2013 7:37:16 PM,VotreNom,5/16/2013 7:04:39 PM,VotreNom,2.36682649962709,48.8348484529294
39,14101,14101 - PLACE FERNAND MOURLOT,33 BD EDGAR QUINET - 75014 PARIS,48.8415048,2.32327772,OPEN,33,33,0,0,1,5/16/2013 7:05:08 PM,5/15/2013 7:37:16 PM,VotreNom,5/16/2013 7:05:41 PM,VotreNom,2.32327771564332,48.8415048015128
40,2007,02007 - CHABANAIS,1 RUE CHABANAIS - 75002 PARIS,48.86712345,2.33668661,OPEN,28,13,15,0,1,5/16/2013 7:02:03 PM,5/15/2013 7:37:16 PM,VotreNom,5/16/2013 7:02:40 PM,VotreNom,2.33668660823889,48.8671234464486
41,20030,20030 - PERE LACHAISE,54 BOULEVARD MENILMONTANT - 75020 PARIS,48.86341111,2.38713396,OPEN,56,46,8,0,1,5/16/2013 7:02:30 PM,5/15/2013 7:37:16 PM,VotreNom,5/16/2013 7:03:41 PM,VotreNom,2.3871339575737,48.8634111074048
42,20041,20041 - BELLEVILLE,116 BD DE BELLEVILLE - 75020 PARIS,48.87119943,2.37799434,OPEN,59,5,54,0,1,5/16/2013 7:05:09 PM,5/15/2013 7:37:16 PM,VotreNom,5/16/2013 7:05:41 PM,VotreNom,2.37799433828971,48.8711994313901
43,20023,20023 - PELLEPORT BELGRAND,44 RUE PELLEPORT - 75020 PARIS,48.86500082,2.40398084,OPEN,15,13,2,1,1,5/16/2013 7:00:38 PM,5/15/2013 7:37:16 PM,VotreNom,5/16/2013 7:01:40 PM,VotreNom,2.40398083637754,48.8650008184765
44,21107,21107 - SINCHOLLE (CLICHY),RUE BERTRAND SINCHOLLE - 92110 CLICHY,48.89935964,2.30404056,OPEN,23,20,3,0,1,5/16/2013 7:04:30 PM,5/15/2013 7:37:16 PM,VotreNom,5/16/2013 7:05:41 PM,VotreNom,2.30404056069813,48.89935963698
45,5022,05022 - CARDINAL LEMOINE,40 RUE BOU LANGERS - 75005 PARIS,48.84629503,2.35222292,OPEN,17,6,11,0,1,5/16/2013 6:56:11 PM,5/15/2013 7:37:16 PM,VotreNom,5/16/2013 6:56:39 PM,VotreNom,2.35222292160752,48.8462950317216
46,42013,42013 - BARBES (IVRY),RUE BARBES / AVENUE DE VERDUN - 94200 IVRY SUR SEINE,48.8159111,2.36822973,OPEN,24,19,4,0,1,5/16/2013 6:59:22 PM,5/15/2013 7:37:16 PM,VotreNom,5/16/2013 6:59:44 PM,VotreNom,2.3682297292435,48.8159110964669
47,21310,21310 - KLEBER (ISSY LES MOULINEAUX),4 RUE KLEBER - 92130 ISSY LES MOULINEAUX,48.82692977,2.27225043,OPEN,24,8,15,0,1,5/16/2013 6:55:27 PM,5/15/2013 7:37:16 PM,VotreNom,5/16/2013 6:56:39 PM,VotreNom,2.27225043195659,48.8269297673693
48,12036,12036 - REUILLY,116 RUE DE REUILLY - 75012 PARIS,48.84030274,2.3946304,OPEN,42,28,14,0,1,5/16/2013 7:04:08 PM,5/15/2013 7:37:16 PM,VotreNom,5/16/2013 7:04:39 PM,VotreNom,2.39463039871545,48.8403027449996
49,20029,20029 - PORTE DES LILAS,57 RUE DES FRERES FLAVIEN - 75020 PARIS,48.87809928,2.4110463,OPEN,25,12,13,1,1,5/16/2013 7:03:19 PM,5/15/2013 7:37:16 PM,VotreNom,5/16/2013 7:03:41 PM,VotreNom,2.41104629853213,48.8780992764359
50,19110,19110 - MACDONALD DUCHESNE,1 RUE JACQUES DUCHESNE - 75019 PARIS,48.89909167,2.37403321,OPEN,18,16,1,0,1,5/16/2013 7:01:51 PM,5/15/2013 7:37:16 PM,VotreNom,5/16/2013 7:02:40 PM,VotreNom,2.37403320974085,48.8990916725109
51,11002,11002 - ROQUETTE THIERE,37 RUE DE LA ROQUETTE - 75011 PARIS,48.8551063,2.37342454,OPEN,23,1,22,0,1,5/16/2013 7:05:17 PM,5/15/2013 7:37:16 PM,VotreNom,5/16/2013 7:05:41 PM,VotreNom,2.37342454193055,48.8551062954048
52,21301,21301 - SAINT VINCENT (ISSY LES MOULINEAUX),21 RUE SAINT VINCENT - 92130 ISSY LES MOULINEAUX,48.81948999,2.25386942,OPEN,34,0,34,0,1,5/16/2013 7:00:04 PM,5/15/2013 7:37:16 PM,VotreNom,5/16/2013 7:00:40 PM,VotreNom,2.25386941995853,48.8194899938888
53,6018,06018 - MICHELET ASSAS,13 RUE MICHELET - 75006 PARIS,48.84254097,2.33506789,OPEN,16,13,1,0,1,5/16/2013 6:55:54 PM,5/15/2013 7:37:16 PM,VotreNom,5/16/2013 6:56:39 PM,VotreNom,2.33506788556552,48.8425409660441
54,2108,02108 - VIVIENNE,42 RUE VIVIENNE - 75002 PARIS,48.87124227,2.341395,OPEN,38,28,10,0,1,5/16/2013 6:58:03 PM,5/15/2013 7:37:16 PM,VotreNom,5/16/2013 6:58:39 PM,VotreNom,2.34139499925741,48.8712422741665
55,35008,35008 - LOLIVE 2 (PANTIN),132 RUE JEAN LOLIVE - 93500 PANTIN,48.89271967,2.41252957,OPEN,30,30,0,0,1,5/16/2013 7:02:34 PM,5/15/2013 7:37:16 PM,VotreNom,5/16/2013 7:03:41 PM,VotreNom,2.41252957147221,48.8927196663313
56,11041,11041 - SAINT AMBROISE,2 RUE LACHARRIERE - 75011 PARIS,48.86082071,2.37563653,OPEN,37,1,35,0,1,5/16/2013 7:01:51 PM,5/15/2013 7:37:16 PM,VotreNom,5/16/2013 7:02:40 PM,VotreNom,2.37563652586721,48.8608207061191
57,20022,20022 - PORTE DE BAGNOLET,1 RUE GEO CHAVEZ - 75020 PARIS,48.86422187,2.40820541,OPEN,33,29,3,1,1,5/16/2013 7:05:23 PM,5/15/2013 7:37:16 PM,VotreNom,5/16/2013 7:05:41 PM,VotreNom,2.40820541185493,48.8642218678641
58,11025,11025 - FROMENT BREGUET,9 RUE FROMENT - 75011 PARIS,48.85704145,2.3728947,OPEN,48,0,48,0,1,5/16/2013 6:59:03 PM,5/15/2013 7:37:16 PM,VotreNom,5/16/2013 6:59:44 PM,VotreNom,2.37289470306815,48.8570414504785
59,20121,20121 - MENILMONTANT BOYER,27 RUE BOYER - 75020 PARIS,48.86891013,2.39202049,OPEN,18,16,2,1,1,5/16/2013 7:03:17 PM,5/15/2013 7:37:16 PM,VotreNom,5/16/2013 7:03:41 PM,VotreNom,2.39202048928633,48.8689101274487
60,9035,09035 - PLACE DE BUDAPEST,38 RUE DE LONDRES - 75009 PARIS,48.87775323,2.32733929,OPEN,44,44,0,0,1,5/16/2013 6:56:16 PM,5/15/2013 7:37:16 PM,VotreNom,5/16/2013 6:56:39 PM,VotreNom,2.32733929071422,48.8777532340006
61,7101,07101 - SEVRES BABYLONE,BOULEVARD RASPAIL - 75007 PARIS,48.85224162,2.32660602,OPEN,54,13,40,0,1,5/16/2013 7:03:20 PM,5/15/2013 7:37:16 PM,VotreNom,5/16/2013 7:03:41 PM,VotreNom,2.32660601947681,48.8522416177073
62,1017,01017 - SAINT HONORE,215 RUE SAINT HONORE - 75001 PARIS,48.86557114,2.33056742,OPEN,20,15,5,0,1,5/16/2013 7:01:15 PM,5/15/2013 7:37:16 PM,VotreNom,5/16/2013 7:01:40 PM,VotreNom,2.33056741757715,48.8655711428242
63,5017,05017 - DESCARTES,17 RUE DESCARTES - 75005 PARIS,48.84660187,2.34901473,OPEN,31,27,4,0,1,5/16/2013 7:05:05 PM,5/15/2013 7:37:16 PM,VotreNom,5/16/2013 7:05:41 PM,VotreNom,2.34901473289273,48.8466018657812
64,8003,08003 - GALILLE,63 RUE GALILEE - 75008 PARIS,48.87170519,2.29852827,OPEN,17,17,0,0,1,5/16/2013 6:58:30 PM,5/15/2013 7:37:16 PM,VotreNom,5/16/2013 6:59:44 PM,VotreNom,2.29852826567984,48.871705191393
65,18019,18019 - MONTCALM,2 RUE MONTCALM - 75018 PARIS,48.89187796,2.33544743,OPEN,49,33,16,1,1,5/16/2013 7:04:07 PM,5/15/2013 7:37:16 PM,VotreNom,5/16/2013 7:04:39 PM,VotreNom,2.33544742768982,48.8918779570875
66,12030,12030 - WATTIGNIES,245 RUE DE CHARENTON - 75012 PARIS,48.8366758,2.39179586,OPEN,33,2,31,0,1,5/16/2013 7:01:42 PM,5/15/2013 7:37:16 PM,VotreNom,5/16/2013 7:02:40 PM,VotreNom,2.39179585555567,48.8366757964063
67,22403,22403 - BROSSOLETTE (MALAKOFF),FACE 35 AVENUE PIERRE BROSSOLETTE - 92240 MALAKOFF,48.82183565,2.31345861,OPEN,24,14,10,0,1,5/16/2013 7:05:10 PM,5/15/2013 7:37:16 PM,VotreNom,5/16/2013 7:05:41 PM,VotreNom,2.31345860825426,48.8218356479179
68,14034,14034 - RUE DE L OUEST CHATEAU,48 RUE DE L'OUEST - 75014 PARIS,48.83617286,2.31939214,OPEN,24,20,4,1,1,5/16/2013 7:03:41 PM,5/15/2013 7:37:16 PM,VotreNom,5/16/2013 7:04:39 PM,VotreNom,2.31939214392379,48.8361728601425
69,16009,16009 - SAINT DIDIER,32 RUE SAINT DIDIER - 75016 PARIS,48.86643916,2.28574594,OPEN,16,13,3,1,1,5/16/2013 6:56:39 PM,5/15/2013 7:37:16 PM,VotreNom,5/16/2013 6:57:39 PM,VotreNom,2.28574594430156,48.8664391603377
70,12011,12011 - CHARENTON,160 RUE CHARENTON - 75012 PARIS,48.84486732,2.38257894,OPEN,36,2,34,0,1,5/16/2013 7:03:52 PM,5/15/2013 7:37:16 PM,VotreNom,5/16/2013 7:04:39 PM,VotreNom,2.38257893505445,48.8448673195541
71,13051,13051 - QUAI FRANCOIS MAURIAC TOLBIAC,9 QUAI FRANCOIS MAURIAC - 75013 PARIS,48.83264101,2.3791049,OPEN,19,5,14,0,1,5/16/2013 7:03:04 PM,5/15/2013 7:37:16 PM,VotreNom,5/16/2013 7:03:41 PM,VotreNom,2.37910490091446,48.8326410103703
72,16111,16111 - HELIE,4-6 rue Faustin Helie - 75016 PARIS,48.85940308,2.27652209,OPEN,32,23,9,0,1,5/16/2013 7:04:56 PM,5/15/2013 7:37:16 PM,VotreNom,5/16/2013 7:05:41 PM,VotreNom,2.27652208902775,48.8594030819401
73,19036,19036 - HOPITAL ROBERT DEBRE,AV DE LA PTE DU PRES SAINT GERVAIS / ANGLE BD D'ALGERIE - 75019 PARIS,48.87993042,2.4009505,OPEN,33,29,4,1,1,5/16/2013 7:00:16 PM,5/15/2013 7:37:16 PM,VotreNom,5/16/2013 7:00:40 PM,VotreNom,2.40095050201496,48.8799304155284
74,22007,22007 - CHARCOT (NEUILLY),35-37 BOULEVARD DU COMMANDANT CHARCOT - 92200 NEUILLY SUR SEINE,48.87536028,2.25569933,OPEN,36,6,30,0,1,5/16/2013 7:04:03 PM,5/15/2013 7:37:16 PM,VotreNom,5/16/2013 7:04:39 PM,VotreNom,2.25569933162912,48.8753602839084
75,19118,19118 - BOLIVAR BURNOUF,82 AVENUE SIMON BOLIVAR - 75019 PARIS,48.87712418,2.37427651,OPEN,22,12,10,0,1,5/16/2013 7:05:18 PM,5/15/2013 7:37:16 PM,VotreNom,5/16/2013 7:05:41 PM,VotreNom,2.37427650923618,48.8771241776674
76,21007,21007 - RHIN DANUBE (BOULOGNE BILLANCOURT),15 ROND POINT RHIN DANUBE - 92100 BOULOGNE BILLANCOURT,48.8406493,2.22797877,OPEN,52,44,7,0,1,5/16/2013 7:00:49 PM,5/15/2013 7:37:16 PM,VotreNom,5/16/2013 7:01:40 PM,VotreNom,2.22797877475432,48.8406492985733
77,31707,31707 - VAILLANT (BAGNOLET),FACE 70 RUE EDOUARD VAILLANT - 93170 BAGNOLET,48.85839568,2.41486063,OPEN,49,39,10,0,1,5/16/2013 7:03:26 PM,5/15/2013 7:37:16 PM,VotreNom,5/16/2013 7:04:39 PM,VotreNom,2.41486062800389,48.8583956785465
78,17010,17010 - JONCQUIERE,90 RUE DE LA JONQUIERE - 75017 PARIS,48.89476862,2.31888535,OPEN,35,0,35,0,1,5/16/2013 7:00:03 PM,5/15/2013 7:37:16 PM,VotreNom,5/16/2013 7:00:40 PM,VotreNom,2.31888535397444,48.8947686246963
79,19120,19120 - ALOUETTES,20 RUE CARDUCCI - 75019 PARIS,48.87751626,2.38609972,OPEN,27,26,1,1,1,5/16/2013 7:04:49 PM,5/15/2013 7:37:16 PM,VotreNom,5/16/2013 7:05:41 PM,VotreNom,2.38609972037215,48.8775162568658
80,8007,08007 - HAUSSMANN ROME,1 RUE DE ROME - 75008 PARIS,48.87423006,2.32557011,OPEN,30,12,17,0,1,5/16/2013 7:02:55 PM,5/15/2013 7:37:16 PM,VotreNom,5/16/2013 7:03:41 PM,VotreNom,2.32557011172413,48.8742300555804
81,20032,20032 - AMANDIERS,55 RUE DES CENDRIERS - 75020 PARIS,48.86629511,2.38935041,OPEN,12,9,3,0,1,5/16/2013 6:59:48 PM,5/15/2013 7:37:16 PM,VotreNom,5/16/2013 7:00:40 PM,VotreNom,2.38935041243348,48.8662951060021
82,10014,10014 - BEAUREPAIRE,14 RUE DE MARSEILLE - 75010 PARIS,48.87166266,2.36393331,OPEN,56,0,54,0,1,5/16/2013 6:59:27 PM,5/15/2013 7:37:16 PM,VotreNom,5/16/2013 7:00:40 PM,VotreNom,2.36393331138037,48.8716626619995
83,17106,17106 - BERTHIER PORTE DE CLICHY,4 BOULEVARD BERTHIER - 75017 PARIS,48.89434509,2.31259389,OPEN,20,0,18,0,1,5/16/2013 7:02:16 PM,5/15/2013 7:37:16 PM,VotreNom,5/16/2013 7:02:40 PM,VotreNom,2.31259388656433,48.8943450929542
84,16044,16044 - STADE FRANCAIS,24 AVENUE DE LA PORTE DE SAINT CLOUD - 75016 PARIS,48.83871336,2.25219106,OPEN,32,4,28,0,1,5/16/2013 7:02:15 PM,5/15/2013 7:37:16 PM,VotreNom,5/16/2013 7:02:40 PM,VotreNom,2.25219106053765,48.8387133631625
85,9032,09032 - MATHURINS,12 RUE DES MATHURINS - 75009 PARIS,48.87297125,2.32946561,OPEN,40,30,10,0,1,5/16/2013 7:04:34 PM,5/15/2013 7:37:16 PM,VotreNom,5/16/2013 7:05:41 PM,VotreNom,2.32946561170082,48.8729712519272
86,15037,15037 - GROULT,202 RUE LECOURBE - 75015 PARIS,48.84041619,2.29546491,OPEN,47,5,42,0,1,5/16/2013 6:55:26 PM,5/15/2013 7:37:16 PM,VotreNom,5/16/2013 6:56:39 PM,VotreNom,2.29546490651512,48.8404161884088
87,8055,08055 - TERNES COURCELLES,87 BD COURCELLES - 75008 PARIS,48.87818888,2.299296,OPEN,29,27,1,0,1,5/16/2013 6:57:51 PM,5/15/2013 7:37:16 PM,VotreNom,5/16/2013 6:58:39 PM,VotreNom,2.29929600386146,48.8781888764185
88,20026,20026 - PELLEPORT,121 AVENUE GAMBETTA - 75020 PARIS,48.86792515,2.40097662,OPEN,33,30,3,1,1,5/16/2013 6:59:12 PM,5/15/2013 7:37:16 PM,VotreNom,5/16/2013 6:59:44 PM,VotreNom,2.40097662354655,48.8679251540267
89,13015,13015 - WEISS,2 RUE LOUIS WEISS - 75013 PARIS,48.83257072,2.37123199,OPEN,41,8,33,0,1,5/16/2013 7:04:31 PM,5/15/2013 7:37:16 PM,VotreNom,5/16/2013 7:05:41 PM,VotreNom,2.37123198668192,48.832570718038
90,15013,15013 - LECOURBE VOLONTAIRE,DEV 1 RUE DES VOLONTAIRES - 75015 PARIS,48.84354274,2.30655862,OPEN,54,19,33,0,1,5/16/2013 7:02:15 PM,5/15/2013 7:37:16 PM,VotreNom,5/16/2013 7:02:40 PM,VotreNom,2.30655861557467,48.8435427350063
91,12114,12114 - PORTE DE SAINT MANDE,33 AVENUE COURTELINE - 75012 PARIS,48.84394906,2.41508139,OPEN,28,22,6,0,1,5/16/2013 7:02:39 PM,5/15/2013 7:37:16 PM,VotreNom,5/16/2013 7:03:41 PM,VotreNom,2.41508139483441,48.8439490640319
92,18011,18011 - HERBERT,85 RUE PAJOL - 75018 PARIS,48.89284571,2.36342902,OPEN,35,13,22,0,1,5/16/2013 6:58:14 PM,5/15/2013 7:37:16 PM,VotreNom,5/16/2013 6:58:39 PM,VotreNom,2.36342901627979,48.8928457111673
93,9011,09011 - FOLIES BERGERES,14 RUE GEOFFROY MARIE - 75009 PARIS,48.87378194,2.34451388,OPEN,20,1,19,0,1,5/16/2013 7:05:05 PM,5/15/2013 7:37:16 PM,VotreNom,5/16/2013 7:05:41 PM,VotreNom,2.3445138763379,48.8737819405933
94,8032,08032 - MATIGNON,27 AVENUE MATIGNON - 75008 PARIS,48.87147642,2.31388542,OPEN,67,67,0,0,1,5/16/2013 6:56:57 PM,5/15/2013 7:37:16 PM,VotreNom,5/16/2013 6:57:39 PM,VotreNom,2.31388541994929,48.871476421301
95,21017,21017 - REPUBLIQUE 1 (BOULOGNE-BILLANCOURT),91 BOULEVARD DE LA REPUBLIPQUE - 92100 BOULOGNE-BILLANCOURT,48.83347368,2.24390053,OPEN,56,50,6,0,1,5/16/2013 7:01:44 PM,5/15/2013 7:37:16 PM,VotreNom,5/16/2013 7:02:40 PM,VotreNom,2.24390053207909,48.8334736792722
96,42208,42208 - PARIS 4 (CHARENTON),178 RUE DE PARIS - 94220 CHARENTON,48.82942147,2.40164811,OPEN,23,18,5,0,1,5/16/2013 6:56:16 PM,5/15/2013 7:37:16 PM,VotreNom,5/16/2013 6:56:39 PM,VotreNom,2.40164810555838,48.8294214716653
97,18002,18002 - CLIGNANCOURT,25 RUE DE CLIGNANCOURT - 75018 PARIS,48.88530162,2.34721104,OPEN,24,3,20,1,1,5/16/2013 7:02:18 PM,5/15/2013 7:37:16 PM,VotreNom,5/16/2013 7:02:40 PM,VotreNom,2.34721103753867,48.8853016219041
98,42015,42015 - PAUL BERT (IVRY),EN VIS A VIS DU 7 RUE PAUL BERT - 94200 IVRY,48.81800227,2.37243238,OPEN,25,22,2,0,1,5/16/2013 7:00:15 PM,5/15/2013 7:37:16 PM,VotreNom,5/16/2013 7:00:40 PM,VotreNom,2.37243237603422,48.8180022698238
99,31708,31708 - NOISY (BAGNOLET),116-118 RUE DE NOISY LE SEC - 93170 BAGNOLET,48.87445772,2.41513809,OPEN,22,5,17,1,1,5/16/2013 7:02:19 PM,5/15/2013 7:37:16 PM,VotreNom,5/16/2013 7:02:40 PM,VotreNom,2.41513809225079,48.8744577172414
100,21703,21703 - MARTINIE (VANVES),5-7 AVENUE MARCEL MARTINIE - 92170 VANVES,48.82104992,2.29130063,OPEN,24,19,5,0,1,5/16/2013 6:58:42 PM,5/15/2013 7:37:16 PM,VotreNom,5/16/2013 6:59:44 PM,VotreNom,2.29130063072417,48.8210499234596
101,17002,17002 - LA FOURCHE RUE DE LA CONDAMINE,4 RUE DE LA CONDAMINE - 75017 PARIS,48.88790135,2.32440045,OPEN,37,16,21,1,1,5/16/2013 7:03:20 PM,5/15/2013 7:37:16 PM,VotreNom,5/16/2013 7:03:41 PM,VotreNom,2.32440044543718,48.8879013455305
102,11044,11044 - RICHARD LENOIR VOLTAIRE NORD,FACE 104 BOULEVARD RICHARD LENOIR - 75011 PARIS,48.86343199,2.37120862,OPEN,23,3,20,0,1,5/16/2013 6:58:05 PM,5/15/2013 7:37:16 PM,VotreNom,5/16/2013 6:58:39 PM,VotreNom,2.37120861796017,48.8634319896359
103,6108,06108 - SAINT ROMAIN CHERCHE MIDI,20 RUE SAINT ROMAIN - 75006 PARIS,48.84703008,2.32128942,OPEN,16,9,7,0,1,5/16/2013 7:02:47 PM,5/15/2013 7:37:16 PM,VotreNom,5/16/2013 7:03:41 PM,VotreNom,2.32128942100683,48.8470300806263
104,42011,42011 - BOYER (IVRY),26 QUAI MARCEL BOYER - 94200 IVRY,48.82211534,2.39285038,OPEN,29,27,2,0,1,5/16/2013 6:57:57 PM,5/15/2013 7:37:16 PM,VotreNom,5/16/2013 6:58:39 PM,VotreNom,2.39285038241431,48.8221153437881
105,19124,19124 - ALEXANDER FLEMMING,RUE ALEXANDER FLEMMING - 75019 PARIS,48.88176979,2.40317937,OPEN,31,28,3,1,1,5/16/2013 7:01:58 PM,5/15/2013 7:37:16 PM,VotreNom,5/16/2013 7:02:40 PM,VotreNom,2.40317936796955,48.8817697938582
106,5020,05020 - PONT DE SULLY RIVE GAUCHE,03 RUE DES FOSSES SAINT BERNARD - 75005 PARIS,48.84915969,2.35614033,OPEN,21,17,4,0,1,5/16/2013 7:00:29 PM,5/15/2013 7:37:16 PM,VotreNom,5/16/2013 7:01:40 PM,VotreNom,2.35614032747542,48.8491596891678
107,7103,07103 - BELGRADE,2 RUE DE BELGRADE - 75007 PARIS,48.85605931,2.30223913,OPEN,20,7,13,0,1,5/16/2013 7:03:47 PM,5/15/2013 7:37:16 PM,VotreNom,5/16/2013 7:04:39 PM,VotreNom,2.30223912888458,48.8560593100747
108,32008,32008 - EMGP NORD (SAINT DENIS),EMGP PARKING ENTREE NORD - 93200 SAINT DENIS,48.90574547,2.36499788,OPEN,35,33,2,0,1,5/16/2013 7:03:25 PM,5/15/2013 7:37:16 PM,VotreNom,5/16/2013 7:03:41 PM,VotreNom,2.36499787715516,48.9057454676545
109,28001,28001 - WALLACE (PUTEAUX),FACE AU 4 BOULEVARD RICHARD WALLACE - 92800 PUTEAUX,48.87870685,2.24197549,OPEN,30,29,0,0,1,5/16/2013 6:56:25 PM,5/15/2013 7:37:16 PM,VotreNom,5/16/2013 6:56:39 PM,VotreNom,2.2419754936939,48.8787068534676
110,23001,23001 - COUTURIER 1 (LEVALLOIS),2 RUE PAUL VAILLANT COUTURIER - 92300 LEVALLOIS,48.89361465,2.27761873,OPEN,35,27,5,0,1,5/16/2013 6:55:46 PM,5/15/2013 7:37:16 PM,VotreNom,5/16/2013 6:56:39 PM,VotreNom,2.27761872722323,48.8936146524531
111,20503,20503 - COURS DE VINCENNES PYRÉNÉES,1 RUE DES PYRENEES - 75020 PARIS,48.84772497,2.40590732,OPEN,21,11,10,0,0,5/16/2013 7:00:39 PM,5/15/2013 7:37:16 PM,VotreNom,5/16/2013 7:01:40 PM,VotreNom,2.40590731701787,48.8477249689847
112,1116,01116 - OPÉRA PYRAMIDES,4 RUE DE VENTADOUR - 75001 PARIS,48.86681065,2.33438845,OPEN,27,17,9,0,1,5/16/2013 7:03:18 PM,5/15/2013 7:37:16 PM,VotreNom,5/16/2013 7:03:41 PM,VotreNom,2.33438844825186,48.866810653323
113,11101,11101 - SQUARE NORDLING,15 RUE CHARLES DELESCLUZE - 75011 PARIS,48.852529,2.38058363,OPEN,49,1,48,0,1,5/16/2013 6:56:32 PM,5/15/2013 7:37:16 PM,VotreNom,5/16/2013 6:57:39 PM,VotreNom,2.38058363232371,48.8525290003959
114,11023,11023 - LEO FROT ROQUETTE,2 RUE SAINT MAUR - 75011 PARIS,48.85868877,2.38355399,OPEN,46,1,45,0,1,5/16/2013 7:03:43 PM,5/15/2013 7:37:16 PM,VotreNom,5/16/2013 7:04:39 PM,VotreNom,2.38355399457146,48.858688774063
115,31010,31010 - STALINGRAD (MONTREUIL),67-69 RUE DE STALINGRAD - 93100 MONTREUIL,48.85681112,2.44498743,OPEN,44,27,17,0,1,5/16/2013 6:57:23 PM,5/15/2013 7:37:16 PM,VotreNom,5/16/2013 6:57:39 PM,VotreNom,2.44498742533927,48.8568111230711
116,1012,01012 - BOURSE DU COMMERCE,FACE 29 RUE JEAN JACQUES ROUSSEAU - 75001 PARIS,48.86299817,2.34155508,OPEN,22,9,13,0,1,5/16/2013 7:03:24 PM,5/15/2013 7:37:16 PM,VotreNom,5/16/2013 7:04:39 PM,VotreNom,2.34155507782724,48.8629981667679
117,12102,12102 - DIDEROT BERCY,224 RUE DE BERCY - 75012 PARIS,48.846188,2.37040616,OPEN,30,6,24,0,1,5/16/2013 7:03:12 PM,5/15/2013 7:37:16 PM,VotreNom,5/16/2013 7:03:41 PM,VotreNom,2.37040616152133,48.8461880014649
118,35009,35009 - LOLIVE 1 (PANTIN),104 AVENUE LOLIVE - 93500 PANTIN,48.89213941,2.40910774,OPEN,22,11,11,0,1,5/16/2013 7:04:52 PM,5/15/2013 7:37:16 PM,VotreNom,5/16/2013 7:05:41 PM,VotreNom,2.40910773770125,48.8921394093072
119,22013,22013 - SAINTE FOY (NEUILLY),2 rue de Chézy - 92200 NEUILLY,48.88514005,2.26780001,OPEN,31,27,3,0,1,5/16/2013 7:01:00 PM,5/15/2013 7:37:16 PM,VotreNom,5/16/2013 7:01:40 PM,VotreNom,2.26780000825357,48.8851400530909
120,19034,19034 - PANTIN,20 AVENUE DE LA PORTE DE PANTIN - 75019 PARIS,48.89034196,2.39781364,OPEN,52,46,6,0,1,5/16/2013 6:59:05 PM,5/15/2013 7:37:16 PM,VotreNom,5/16/2013 6:59:44 PM,VotreNom,2.39781364218958,48.8903419552169
121,8103,08103 - D'ARTOIS BERRY,31 RUE D'ARTOIS - 75008 PARIS,48.87379432,2.30629955,OPEN,23,23,0,0,1,5/16/2013 6:58:27 PM,5/15/2013 7:37:16 PM,VotreNom,5/16/2013 6:59:44 PM,VotreNom,2.30629955027107,48.8737943183796
122,43003,43003 - PARIS 2 (VINCENNES),104 AVENUE DE PARIS - 94300 VINCENNES,48.8457199,2.4274063,OPEN,26,14,12,0,1,5/16/2013 6:57:42 PM,5/15/2013 7:37:16 PM,VotreNom,5/16/2013 6:58:39 PM,VotreNom,2.42740630276139,48.8457199009261
123,9003,09003 - PLACE BARBÈS,PLACE BARBES - 75009 PARIS,48.8836532,2.34904086,OPEN,25,21,4,0,1,5/16/2013 7:00:22 PM,5/15/2013 7:37:16 PM,VotreNom,5/16/2013 7:00:40 PM,VotreNom,2.34904085503438,48.8836531972476
124,14009,14009 - COTY TOMBE D'ISSOIRE,49 RUE DE LA TOMBE D'ISSOIRE - 75014 PARIS,48.830556,2.3337833,OPEN,36,31,4,0,1,5/16/2013 6:57:56 PM,5/15/2013 7:37:16 PM,VotreNom,5/16/2013 6:58:39 PM,VotreNom,2.33378329803366,48.83055599941
125,15071,15071 - CHAMP DE MARS COTE 16EME,36 RUE DE SUFFREN - 75015 PARIS,48.85485175,2.29500791,OPEN,22,17,5,0,1,5/16/2013 7:03:56 PM,5/15/2013 7:37:16 PM,VotreNom,5/16/2013 7:04:39 PM,VotreNom,2.29500791364336,48.8548517488353
126,14035,14035 - MAINE GAITE,90 AVENUE DU MAINE - 75014 PARIS,48.83788363,2.32255164,OPEN,48,48,0,1,1,5/16/2013 6:55:58 PM,5/15/2013 7:37:16 PM,VotreNom,5/16/2013 6:56:39 PM,VotreNom,2.32255164001818,48.8378836277624
127,10114,10114 - HOPITAL SAINT LOUIS,12 BIS RUE DE LA GRANGE AUX BELLES - 75010 PARIS,48.87479499,2.36666944,OPEN,59,11,48,0,1,5/16/2013 7:00:25 PM,5/15/2013 7:37:16 PM,VotreNom,5/16/2013 7:01:40 PM,VotreNom,2.366669436985,48.8747949948413
128,16041,16041 - VERSAILLES,164 AVENUE DE VERSAILLES - 75016 PARIS,48.84021934,2.26383419,OPEN,43,12,31,0,1,5/16/2013 7:04:58 PM,5/15/2013 7:37:16 PM,VotreNom,5/16/2013 7:05:41 PM,VotreNom,2.26383419115301,48.8402193380742
129,10040,10040 - BELLEVILLE,8 BOULEVARD DE LA VILETTE - 75010 PARIS,48.87277816,2.37634839,OPEN,48,31,17,0,1,5/16/2013 7:01:15 PM,5/15/2013 7:37:16 PM,VotreNom,5/16/2013 7:01:40 PM,VotreNom,2.37634839464603,48.87277815649
130,23011,23011 - BINEAU (LEVALLOIS),16 BOULEVARD BINEAU - 92300 LEVALLOIS-PERRET,48.88668137,2.28402369,OPEN,25,18,6,0,1,5/16/2013 6:55:50 PM,5/15/2013 7:37:16 PM,VotreNom,5/16/2013 6:56:39 PM,VotreNom,2.28402369121819,48.886681372499
131,1006,01006 - GRANDE TRUANDERIE,2-4 rue DE LA GRANDE TRUANDERIE 75001 PARIS,48.8626318,2.34973214,OPEN,33,0,32,0,1,5/16/2013 7:01:51 PM,5/15/2013 7:37:16 PM,VotreNom,5/16/2013 7:02:40 PM,VotreNom,2.34973214483105,48.8626318041595
132,2011,02011 - BIBLIOTHEQUE NATIONALE,71 RUE DE RICHELIEU - 75002 PARIS,48.86829989,2.33808978,OPEN,26,17,6,0,1,5/16/2013 7:02:08 PM,5/15/2013 7:37:16 PM,VotreNom,5/16/2013 7:02:40 PM,VotreNom,2.33808978227852,48.8682998892007
133,31005,31005 - PARIS 2  (MONTREUIL),127/129 RUE DE PARIS - 93100 MONTREUIL,48.85628452,2.42643449,OPEN,44,41,3,0,1,5/16/2013 7:03:54 PM,5/15/2013 7:37:16 PM,VotreNom,5/16/2013 7:04:39 PM,VotreNom,2.42643449060982,48.8562845161865
134,16007,16007 - LONGCHAMP,4 RUE DE LONGCHAMP - 75016 PARIS,48.86491045,2.2925191,OPEN,39,35,4,0,1,5/16/2013 7:05:19 PM,5/15/2013 7:37:16 PM,VotreNom,5/16/2013 7:05:41 PM,VotreNom,2.29251910100419,48.864910448589
135,15069,15069 - BOUCICAUT FAURE,41 AVENUE FELIX FAURE - 75015 PARIS,48.84124934,2.2883866,OPEN,46,0,45,0,1,5/16/2013 6:58:05 PM,5/15/2013 7:37:16 PM,VotreNom,5/16/2013 6:58:39 PM,VotreNom,2.28838660084949,48.841249336041
136,21702,21702 - BASCH (VANVES),6 AVENUE VICTOR BASCH - 92170 VANVES,48.81893986,2.29195987,OPEN,51,42,8,1,1,5/16/2013 6:58:22 PM,5/15/2013 7:37:16 PM,VotreNom,5/16/2013 6:58:39 PM,VotreNom,2.29195987246792,48.8189398642899
137,13514,13514 - GARE D'AUSTERLITZ 2,9 BOULEVARD DE L'HOPITAL - 75013 PARIS,48.84183617,2.36346864,OPEN,19,1,18,0,1,5/16/2013 7:01:34 PM,5/15/2013 7:37:16 PM,VotreNom,5/16/2013 7:02:40 PM,VotreNom,2.36346863686009,48.8418361736006
138,21203,21203 - BRIAND (MONTROUGE),PLACE JULES FERRY / AVENUE ARISTIDE BRIAND - 92120 MONTROUGE,48.81251091,2.32568062,OPEN,28,27,1,0,1,5/16/2013 6:57:08 PM,5/15/2013 7:37:16 PM,VotreNom,5/16/2013 6:57:39 PM,VotreNom,2.32568062304455,48.8125109081987
139,22014,22014 - HUGO (NEUILLY),35 BOULEVARD VICTOR HUGO - 92200 NEUILLY,48.88780107,2.27807242,OPEN,25,10,15,0,1,5/16/2013 7:00:18 PM,5/15/2013 7:37:16 PM,VotreNom,5/16/2013 7:00:40 PM,VotreNom,2.27807242436823,48.8878010685929
140,19018,19018 - CITÉ DE LA MUSIQUE VERSION 2,FACE 210 AVENUE JEAN JAURES - 75019 PARIS,48.88878607,2.39268612,OPEN,60,52,8,0,1,5/16/2013 7:01:20 PM,5/15/2013 7:37:16 PM,VotreNom,5/16/2013 7:01:40 PM,VotreNom,2.39268612206715,48.8887860708258
141,33104,33104 - JOINEAU (PRE SAINT GERVAIS),RUE ANDRE JOINEAU / PLACE ANATOLE FRANCE - 93310 LE PRE SAINT GERVAIS,48.88362023,2.40324032,OPEN,55,0,0,1,1,5/16/2013 7:02:45 PM,5/15/2013 7:37:16 PM,VotreNom,5/16/2013 7:03:41 PM,VotreNom,2.40324031836666,48.8836202338437
142,11039,11039 - JULES FERRY REPUBLIQUE,FACE 121 BOULEVARD RICHARD LENOIR - 75011 PARIS,48.86580428,2.36933707,OPEN,36,1,34,0,1,5/16/2013 7:00:22 PM,5/15/2013 7:37:16 PM,VotreNom,5/16/2013 7:00:40 PM,VotreNom,2.36933707496692,48.8658042766864
143,17105,17105 - PALADINES,18 BOULEVARD D'AURELLE DE PALADINES - 75017 PARIS,48.88349808,2.28201559,OPEN,41,32,9,0,1,5/16/2013 7:01:37 PM,5/15/2013 7:37:16 PM,VotreNom,5/16/2013 7:02:40 PM,VotreNom,2.28201558962578,48.8834980819484
144,14113,14113 - ARAGO 2,36 RUE DE LA SANTE - 75014 PARIS,48.83512887,2.34157863,OPEN,37,34,3,0,1,5/16/2013 7:02:54 PM,5/15/2013 7:37:16 PM,VotreNom,5/16/2013 7:03:41 PM,VotreNom,2.34157863455694,48.8351288650429
145,8056,08056 - WAGRAM,21 RUE BEAUJON - 75008 PARIS,48.87537765,2.29655534,OPEN,11,11,0,0,1,5/16/2013 7:00:51 PM,5/15/2013 7:37:16 PM,VotreNom,5/16/2013 7:01:40 PM,VotreNom,2.29655534247626,48.875377647487
146,21104,21104 - SANZILLON (CLICHY),64 RUE DE MADAME DE SANZILLON - 92110 CLICHY,48.9036767,2.31917666,OPEN,22,20,2,0,1,5/16/2013 6:56:46 PM,5/15/2013 7:37:16 PM,VotreNom,5/16/2013 6:57:39 PM,VotreNom,2.31917665758015,48.9036767022563
147,15014,15014 - VOLONTAIRES,25 RUE DES VOLONTAIRES - 75015 PARIS,48.8413205,2.30808902,OPEN,34,24,10,0,1,5/16/2013 7:00:36 PM,5/15/2013 7:37:16 PM,VotreNom,5/16/2013 7:01:40 PM,VotreNom,2.30808901725358,48.84132050184
148,12009,12009 - DIDEROT,FACE 124 RUE DE CHARENTON - 75012 PARIS,48.84626879,2.37926433,OPEN,18,0,18,0,1,5/16/2013 7:03:28 PM,5/15/2013 7:37:16 PM,VotreNom,5/16/2013 7:04:39 PM,VotreNom,2.37926432509035,48.8462687898039
149,18037,18037 - AMIRAUX,48 RUE BOINOD - 75018 PARIS,48.89454172,2.35229547,OPEN,20,13,7,0,1,5/16/2013 7:05:06 PM,5/15/2013 7:37:16 PM,VotreNom,5/16/2013 7:05:41 PM,VotreNom,2.35229546677962,48.8945417158498
150,15035,15035 - PLACE ETIENNE PERNET,2 RUE DES FRERES MORANE - 75015 PARIS,48.84245876,2.29217354,OPEN,42,0,42,0,1,5/16/2013 6:56:52 PM,5/15/2013 7:37:16 PM,VotreNom,5/16/2013 6:57:39 PM,VotreNom,2.29217354144168,48.8424587555045
151,8016,08016 - SQUARE LOUIS XVI,DEV 32 RUE PASQUIER - 75008 PARIS,48.8732044,2.32365883,OPEN,39,23,14,0,1,5/16/2013 7:04:55 PM,5/15/2013 7:37:16 PM,VotreNom,5/16/2013 7:05:41 PM,VotreNom,2.32365883074314,48.8732044010289
152,13004,13004 - GLACIERE,88 BOULEVARD AUGUSTE BLANQUI (SUR TPC) - 75013 PARIS,48.83062408,2.34542946,OPEN,68,24,44,0,1,5/16/2013 7:00:44 PM,5/15/2013 7:37:16 PM,VotreNom,5/16/2013 7:01:40 PM,VotreNom,2.34542945664603,48.8306240750937
153,8025,08025 - MIROMESNIL,39 RUE DE MIROMESNIL - 75008 PARIS,48.87376047,2.31587631,OPEN,33,29,4,0,1,5/16/2013 7:04:33 PM,5/15/2013 7:37:16 PM,VotreNom,5/16/2013 7:05:41 PM,VotreNom,2.31587630834642,48.87376047214
154,13104,13104 - GARE D'AUSTERLITZ,FACE 109 QUAI D'AUSTERLITZ - 75013 PARIS,48.84379048,2.36558567,OPEN,27,12,15,0,1,5/16/2013 7:03:43 PM,5/15/2013 7:37:16 PM,VotreNom,5/16/2013 7:04:39 PM,VotreNom,2.36558566557559,48.8437904773204
155,14004,14004 - PORT ROYAL COCHIN,111 BD PORT ROYAL - 75014 PARIS,48.83843183,2.34079467,OPEN,23,22,0,0,1,5/16/2013 7:03:41 PM,5/15/2013 7:37:16 PM,VotreNom,5/16/2013 7:04:39 PM,VotreNom,2.34079466687067,48.8384318254917
156,11034,11034 - PARMENTIER FONTAINE AU ROI,124 AVENUE PARMENTIER - 75011 PARIS,48.86787671,2.37270598,OPEN,47,0,47,0,1,5/16/2013 7:02:19 PM,5/15/2013 7:37:16 PM,VotreNom,5/16/2013 7:02:40 PM,VotreNom,2.37270597867147,48.8678767055174
157,13116,13116 - PLACE DU DOCTEUR YERSIN,FACE 5 AVENUE DE LA PORTE D'IVRY - 75013 PARIS,48.82022679,2.37220931,OPEN,18,16,1,0,1,5/16/2013 7:00:44 PM,5/15/2013 7:37:16 PM,VotreNom,5/16/2013 7:01:40 PM,VotreNom,2.37220930964577,48.8202267926197
158,21021,21021 - PARADIS (BOULOGNE-BILLANCOURT),FACE AU 128 RUE DES ENFANTS DU PARADIS - 92100 BOULOGNE BILLANCOURT,48.83317496,2.25700587,OPEN,40,38,2,0,1,5/16/2013 7:00:01 PM,5/15/2013 7:37:16 PM,VotreNom,5/16/2013 7:00:40 PM,VotreNom,2.2570058673009,48.8331749589101
159,14002,14002 - RASPAIL QUINET,FACE 4 BD EDGAR QUINET - 75014 PARIS,48.83919917,2.3295551,OPEN,44,44,0,1,1,5/16/2013 6:57:02 PM,5/15/2013 7:37:16 PM,VotreNom,5/16/2013 6:57:39 PM,VotreNom,2.32955509720775,48.8391991671584
160,18032,18032 - PORTE DE CLIGNANCOURT,FACE 59 RUE BELLIARD - 75018 PARIS,48.89748846,2.3439965,OPEN,32,25,7,0,1,5/16/2013 7:04:02 PM,5/15/2013 7:37:16 PM,VotreNom,5/16/2013 7:04:39 PM,VotreNom,2.3439964993378,48.8974884597493
161,12005,12005 - CROZATIER,74 RUE CROZATIER - 75012 PARIS,48.85044001,2.37890137,OPEN,30,1,29,0,1,5/16/2013 7:02:20 PM,5/15/2013 7:37:16 PM,VotreNom,5/16/2013 7:02:40 PM,VotreNom,2.37890136621106,48.8504400134045
162,21018,21018 - SEINE (BOULOGNE-BILLANCOURT),FACE AU 13 RUE DE LA SEINE - 92100 BOULOGNE-BILLANCOURT,48.82824349,2.25065774,OPEN,26,1,25,0,1,5/16/2013 7:00:58 PM,5/15/2013 7:37:16 PM,VotreNom,5/16/2013 7:01:40 PM,VotreNom,2.250657739639,48.8282434941586
163,12038,12038 - BEL AIR,FACE 12 BOULEVARD PICPUS - 75012 PARIS,48.83998879,2.40052567,OPEN,39,25,14,0,1,5/16/2013 6:56:07 PM,5/15/2013 7:37:16 PM,VotreNom,5/16/2013 6:56:39 PM,VotreNom,2.40052566855206,48.8399887889119
164,8549,08549 - PLACE DUNANT,39 AVENUE GEORGE V - 75008 PARIS,48.87040914,2.30112319,OPEN,24,24,0,0,1,5/16/2013 7:01:34 PM,5/15/2013 7:37:16 PM,VotreNom,5/16/2013 7:02:40 PM,VotreNom,2.30112319174414,48.8704091350748
165,16122,16122 - MUETTE NEUILLY,ROUTE DE LA MUETTE A NEUILLY - 75016 PARIS,48.88007964,2.25857659,OPEN,50,29,21,0,1,5/16/2013 7:01:59 PM,5/15/2013 7:37:16 PM,VotreNom,5/16/2013 7:02:40 PM,VotreNom,2.25857658988375,48.8800796431116
166,17110,17110 - LEGENDRE,83 RUE LEGENDRE - 75017 PARIS,48.88777233,2.32036787,OPEN,29,9,20,0,1,5/16/2013 7:00:06 PM,5/15/2013 7:37:16 PM,VotreNom,5/16/2013 7:00:40 PM,VotreNom,2.32036786584418,48.8877723254284
167,20002,20002 - PIXERECOURT,FACE 65 RUE PIXERECOURT - 75020 PARIS,48.87380362,2.39601222,OPEN,15,14,1,1,1,5/16/2013 6:57:22 PM,5/15/2013 7:37:16 PM,VotreNom,5/16/2013 6:57:39 PM,VotreNom,2.39601222330053,48.8738036229888
168,10021,10021 - MARCHE ST QUENTIN,4 RUE DES PETITS HOTELS - 75010 PARIS,48.87735606,2.35451145,OPEN,15,13,2,0,1,5/16/2013 7:01:45 PM,5/15/2013 7:37:16 PM,VotreNom,5/16/2013 7:02:40 PM,VotreNom,2.35451144563742,48.8773560576523
169,15006,15006 - CHERCHE MIDI,FACE AU 138 RUE DU CHERCHE MIDI - 75015 PARIS,48.84457596,2.31775658,OPEN,36,23,11,0,1,5/16/2013 7:02:52 PM,5/15/2013 7:37:16 PM,VotreNom,5/16/2013 7:03:41 PM,VotreNom,2.31775657923202,48.8445759639333
170,18008,18008 - SQUARE LEON,FACE 36 RUE CAVE - 75018 PARIS,48.88666703,2.35321307,OPEN,33,17,15,0,1,5/16/2013 7:04:36 PM,5/15/2013 7:37:16 PM,VotreNom,5/16/2013 7:05:41 PM,VotreNom,2.35321307162406,48.8866670263751
171,35007,35007 - DELESSERT (PANTIN),1 RUE  BENJAMIN DELESSERT - 93500 PANTIN,48.89394371,2.41802966,OPEN,21,14,7,0,1,5/16/2013 7:01:26 PM,5/15/2013 7:37:16 PM,VotreNom,5/16/2013 7:02:40 PM,VotreNom,2.41802965968679,48.8939437131899
172,32004,32004 - BAILLY (SAINT DENIS),AVENUE DU PRESIDENT WILSON/ RUE DE BAILLY - 93200 SAINT DENIS,48.91519864,2.35750068,OPEN,43,39,3,0,1,5/16/2013 7:03:26 PM,5/15/2013 7:37:16 PM,VotreNom,5/16/2013 7:04:39 PM,VotreNom,2.35750068368612,48.915198642437
173,19013,19013 - LAUMIERE ET LAUMIERE BIS,8 & 1 RUE PETIT - 75019 PARIS,48.88458074,2.38012665,OPEN,33,10,23,0,1,5/16/2013 6:57:30 PM,5/15/2013 7:37:16 PM,VotreNom,5/16/2013 6:58:39 PM,VotreNom,2.38012665025373,48.8845807406891
174,20110,20110 - PORTE DES LILAS,FACE 241 AVENUE GAMBETTA - 75020 PARIS,48.87541242,2.40596033,OPEN,20,20,0,1,1,5/16/2013 6:56:44 PM,5/15/2013 7:37:16 PM,VotreNom,5/16/2013 6:57:39 PM,VotreNom,2.40596033115492,48.875412421861
175,17049,17049 - SAUSSURE,116 BIS RUE DE SAUSSURE - 75017 PARIS,48.88819924,2.31062342,OPEN,19,13,6,0,1,5/16/2013 7:02:29 PM,5/15/2013 7:37:16 PM,VotreNom,5/16/2013 7:03:41 PM,VotreNom,2.31062341756796,48.8881992361537
176,10151,10151 - GARE DU NORD 1,8-10 RUE DE DUNKERQUE - 75010 PARIS,48.87963935,2.35690496,OPEN,26,26,0,0,1,5/16/2013 7:03:10 PM,5/15/2013 7:37:16 PM,VotreNom,5/16/2013 7:03:41 PM,VotreNom,2.35690495841524,48.8796393529951
177,21002,21002 - DENFERT ROCHEREAU (BOULOGNE-BILLANCOURT),PLACE DENFERT ROCHEREAU - 92100 BOULOGNE BILLANCOURT,48.84317666,2.24621423,OPEN,20,0,20,0,1,5/16/2013 7:04:43 PM,5/15/2013 7:37:16 PM,VotreNom,5/16/2013 7:05:41 PM,VotreNom,2.24621423158067,48.8431766558771
178,5014,05014 - CALVIN,8 RUE JEAN CALVIN - 75005 PARIS,48.84163271,2.34855202,OPEN,28,25,3,0,1,5/16/2013 6:59:31 PM,5/15/2013 7:37:16 PM,VotreNom,5/16/2013 7:00:40 PM,VotreNom,2.34855201811702,48.8416327086176
179,5021,05021 - JUSSIEU,41 RUE JUSSIEU - 75005 PARIS,48.84718464,2.35339838,OPEN,36,22,13,0,1,5/16/2013 7:03:42 PM,5/15/2013 7:37:16 PM,VotreNom,5/16/2013 7:04:39 PM,VotreNom,2.35339837968939,48.8471846411502
180,3014,03014 - GRENIER SAINT LAZARE,FACE 34 RUE GRENIER SAINT LAZARE - 75003 PARIS,48.86306283,2.35283938,OPEN,31,0,31,0,1,5/16/2013 7:04:52 PM,5/15/2013 7:37:16 PM,VotreNom,5/16/2013 7:05:41 PM,VotreNom,2.35283938071818,48.8630628327432
181,18010,18010 - MARX DORMOY,81 RUE RIQUET - 75018 PARIS,48.89013399,2.36050424,OPEN,48,24,24,0,1,5/16/2013 7:05:18 PM,5/15/2013 7:37:16 PM,VotreNom,5/16/2013 7:05:41 PM,VotreNom,2.36050424484145,48.8901339874871
182,14115,14115 - CITÉ UNIVERSITAIRE,AVENUE MAURICE D'OCAGNE - 75014 PARIS,48.82392317,2.31657333,OPEN,33,32,1,0,1,5/16/2013 7:01:30 PM,5/15/2013 7:37:16 PM,VotreNom,5/16/2013 7:02:40 PM,VotreNom,2.31657332931612,48.8239231685447
183,42702,42702 - LECLERC (KREMLIN BICETRE),73 RUE DU GENERAL LECLERC - 94270 LE KREMELIN BICETRE,48.8104775,2.3581729,OPEN,20,15,5,1,1,5/16/2013 7:04:00 PM,5/15/2013 7:37:16 PM,VotreNom,5/16/2013 7:04:39 PM,VotreNom,2.35817289646253,48.8104774996005
184,41601,41601 - GENERAL DE GAULLE (SAINT MANDE),86 AVENUE DU GENERAL DE GAULLE - 94160 SAINT MANDE,48.83903043,2.41741044,OPEN,24,0,22,0,1,5/16/2013 6:58:41 PM,5/15/2013 7:37:16 PM,VotreNom,5/16/2013 6:59:44 PM,VotreNom,2.41741043540354,48.8390304317693
185,10042,10042 - POISSONNIÈRE - ENGHIEN,52 RUE D'ENGHIEN / ANGLE RUE DU FAUBOURG POISSONIERE - 75010 PARIS,48.87242006,2.34839524,OPEN,33,13,20,0,1,5/16/2013 6:56:49 PM,5/15/2013 7:37:16 PM,VotreNom,5/16/2013 6:57:39 PM,VotreNom,2.34839523628282,48.8724200630532
186,9004,09004 - ROCHECHOUART GERANDO,19 RUE GUERANDO - 75009 PARIS,48.88291109,2.34631937,OPEN,21,21,0,1,1,5/16/2013 7:02:12 PM,5/15/2013 7:37:16 PM,VotreNom,5/16/2013 7:02:40 PM,VotreNom,2.34631937162714,48.8829110895394
187,16101,16101 - MALAKOFF,161 AVENUE MALAKOFF - 75016 PARIS,48.87669269,2.28345759,OPEN,34,33,0,0,1,5/16/2013 7:04:27 PM,5/15/2013 7:37:16 PM,VotreNom,5/16/2013 7:05:41 PM,VotreNom,2.2834575933834,48.8766926874369
188,12107,12107 - DIDEROT BOURDAN,146 BOULEVARD DIDEROT - 75012 PARIS,48.84765388,2.39023863,OPEN,21,0,21,0,1,5/16/2013 7:05:01 PM,5/15/2013 7:37:16 PM,VotreNom,5/16/2013 7:05:41 PM,VotreNom,2.39023863314186,48.8476538809847
189,5028,05028 - CENSIER BUFFON,6 RUE CENSIER - 75005 PARIS,48.84108002,2.35543071,OPEN,55,0,54,0,1,5/16/2013 7:04:37 PM,5/15/2013 7:37:16 PM,VotreNom,5/16/2013 7:05:41 PM,VotreNom,2.3554307142448,48.8410800220159
190,903,00903 - QUAI MAURIAC  / PONT DE BERCY,FETE DE L'OH (BERCY) - QUAI MAURIAC ANG PONT DE BERCY,48.83713369,2.37434055,OPEN,20,10,10,0,1,5/16/2013 7:04:03 PM,5/15/2013 7:37:16 PM,VotreNom,5/16/2013 7:04:39 PM,VotreNom,2.37434055460563,48.8371336894516
191,9027,09027 - FONTAINE DOUAI,24 RUE DE DOUAI - 75009 PARIS,48.88235326,2.33326337,OPEN,25,21,4,0,1,5/16/2013 6:57:38 PM,5/15/2013 7:37:16 PM,VotreNom,5/16/2013 6:58:39 PM,VotreNom,2.33326337274819,48.8823532598454
192,19011,19011 - ROUVET DAMPIERRE VERSION 2,2 RUE ROUVET - 75019 PARIS,48.89338005,2.38499976,OPEN,47,8,13,0,1,5/16/2013 6:59:21 PM,5/15/2013 7:37:16 PM,VotreNom,5/16/2013 6:59:44 PM,VotreNom,2.3849997568962,48.8933800500227
193,34006,34006 - MICHELET (SAINT OUEN),92 AVENUE MICHELET - 93400 SAINT OUEN,48.90630481,2.34396902,OPEN,25,12,13,0,1,5/16/2013 6:57:06 PM,5/15/2013 7:37:16 PM,VotreNom,5/16/2013 6:57:39 PM,VotreNom,2.3439690170428,48.906304806068
194,17040,17040 - TERNES PEREIRE,227 BOULEVARD PEREIRE SUR TPC - 75017 PARIS,48.87981322,2.28795645,OPEN,46,41,5,0,1,5/16/2013 7:04:55 PM,5/15/2013 7:37:16 PM,VotreNom,5/16/2013 7:05:41 PM,VotreNom,2.28795645234243,48.8798132183376
195,16042,16042 - PORTE DE SAINT CLOUD,120 BOULEVARD MURAT - 75016 PARIS,48.83755526,2.25797257,OPEN,56,34,22,0,1,5/16/2013 7:05:21 PM,5/15/2013 7:37:16 PM,VotreNom,5/16/2013 7:05:41 PM,VotreNom,2.2579725727069,48.8375552600146
196,19022,19022 - BOLIVAR,53 RUE DE MEAUX - 75019 PARIS,48.88144732,2.37340477,OPEN,23,20,3,0,1,5/16/2013 7:03:16 PM,5/15/2013 7:37:16 PM,VotreNom,5/16/2013 7:03:41 PM,VotreNom,2.3734047671616,48.8814473211034
197,20036,20036 - MENILMONTANT - PELLEPORT,164 RUE DE MENILMONTANT - 75020 PARIS,48.87068263,2.3989596,OPEN,19,19,0,1,1,5/16/2013 6:52:35 PM,5/15/2013 7:37:16 PM,VotreNom,5/16/2013 6:53:39 PM,VotreNom,2.39895960233165,48.8706826338446
198,7017,07017 - LA TOUR MAUBOURG,1 AVENUE DE LA MOTTE PICQUET - 75007 PARIS,48.8572765,2.31025793,OPEN,39,29,9,0,1,5/16/2013 7:04:50 PM,5/15/2013 7:37:16 PM,VotreNom,5/16/2013 7:05:41 PM,VotreNom,2.31025792753499,48.8572764982963
199,34009,34009 - MAAR (SAINT OUEN),RUE DORA MAAR / GARE RER - 93400 SAINT OUEN,48.90526963,2.32217125,OPEN,26,21,5,0,1,5/16/2013 7:05:18 PM,5/15/2013 7:37:16 PM,VotreNom,5/16/2013 7:05:41 PM,VotreNom,2.32217124868869,48.9052696293797
200,12105,12105 - BERCY VILLOT,153 RUE DE BERCY - 75012 PARIS,48.84190715,2.37660563,OPEN,35,24,10,0,1,5/16/2013 7:04:24 PM,5/15/2013 7:37:16 PM,VotreNom,5/16/2013 7:04:39 PM,VotreNom,2.37660562531249,48.8419071533337
201,18114,18114 - LEPIC VERON,35 RUE VERON - 75018 PARIS,48.88525797,2.33461774,OPEN,21,20,1,1,1,5/16/2013 7:02:37 PM,5/15/2013 7:37:16 PM,VotreNom,5/16/2013 7:03:41 PM,VotreNom,2.3346177356407,48.8852579713485
202,17030,17030 - RENNEQUIN PEREIRE,143 BOULEVARD DE PEREIRE - 75017 PARIS,48.88363915,2.29515207,OPEN,23,14,8,0,1,5/16/2013 6:57:02 PM,5/15/2013 7:37:16 PM,VotreNom,5/16/2013 6:57:39 PM,VotreNom,2.29515206744627,48.8836391538993
203,10115,10115 - DODU,1-3 RUE DES ECLUSES SAINT MARTIN - 75010 PARIS,48.87613734,2.3680845,OPEN,27,6,21,0,1,5/16/2013 7:03:40 PM,5/15/2013 7:37:16 PM,VotreNom,5/16/2013 7:04:39 PM,VotreNom,2.36808449794173,48.8761373390584
204,15023,15023 - LA MOTTE PIQUET,146 BOULEVARD GRENELLE - 75015 PARIS,48.84865632,2.29924408,OPEN,34,19,13,0,1,5/16/2013 6:57:24 PM,5/15/2013 7:37:16 PM,VotreNom,5/16/2013 6:58:39 PM,VotreNom,2.299244076946,48.8486563159053
205,12108,12108 - PALAIS OMNISPORT,81 RUE DE BERCY - 75012 PARIS,48.83877531,2.38086079,OPEN,44,1,43,0,1,5/16/2013 7:05:02 PM,5/15/2013 7:37:16 PM,VotreNom,5/16/2013 7:05:41 PM,VotreNom,2.38086079265403,48.8387753064814
206,14020,14020 - PORTE DE MONTROUGE,AV. DE LA PORTE DE MONTROUGE - 75014 PARIS,48.82121679,2.3211735,OPEN,54,50,2,0,1,5/16/2013 6:59:39 PM,5/15/2013 7:37:16 PM,VotreNom,5/16/2013 7:00:40 PM,VotreNom,2.32117350214308,48.8212167896894
207,20122,20122 - DAVOUT VITRUVE,98 RUE VITRUVE - 75020 PARIS,48.86024012,2.40875843,OPEN,27,4,23,1,1,5/16/2013 7:00:49 PM,5/15/2013 7:37:16 PM,VotreNom,5/16/2013 7:01:40 PM,VotreNom,2.40875842782218,48.8602401209525
208,3008,03008 - PERLE,22 RUE DE LA PERLE - 75003 PARIS,48.85984668,2.36105049,OPEN,18,0,18,0,1,5/16/2013 7:02:19 PM,5/15/2013 7:37:16 PM,VotreNom,5/16/2013 7:02:40 PM,VotreNom,2.36105048709204,48.859846683207
209,14108,14108 - JOURDAN LE BRIX ET MESNIN,RUE LE BRIX ET MESNIN - 75014 PARIS,48.82234097,2.32786165,OPEN,21,20,1,0,1,5/16/2013 7:04:49 PM,5/15/2013 7:37:16 PM,VotreNom,5/16/2013 7:05:41 PM,VotreNom,2.3278616533025,48.8223409659342
210,16037,16037 - MOLITOR - MICHEL ANGE,35 RUE MOLITOR - 75016 PARIS,48.84518208,2.26211277,OPEN,52,45,3,0,1,5/16/2013 7:00:24 PM,5/15/2013 7:37:16 PM,VotreNom,5/16/2013 7:00:40 PM,VotreNom,2.26211277356601,48.8451820815381
211,12028,12028 - VIVALDI,42 ALLEE VIVALDI - 75012 PARIS,48.84192366,2.38972898,OPEN,27,9,18,0,1,5/16/2013 7:03:30 PM,5/15/2013 7:37:16 PM,VotreNom,5/16/2013 7:04:39 PM,VotreNom,2.38972897946738,48.8419236632766
212,18040,18040 - CHAPELLE MARX DORMOY,29 BOULEVARD DE LA CHAPELLE - 75018 PARIS,48.88457006,2.36021557,OPEN,23,15,8,0,1,5/16/2013 6:58:15 PM,5/15/2013 7:37:16 PM,VotreNom,5/16/2013 6:58:39 PM,VotreNom,2.36021557266434,48.8845700631631
213,4003,04003 - PONT SAINT LOUIS,1 QUAI AUX FLEURS - 75004 PARIS,48.85294489,2.35208865,OPEN,21,2,19,0,1,5/16/2013 7:05:21 PM,5/15/2013 7:37:16 PM,VotreNom,5/16/2013 7:05:41 PM,VotreNom,2.35208864944074,48.8529448879212
214,16040,16040 - EXELMANS,73 BIS BOULEVARD EXELMANS - 75016 PARIS,48.84310449,2.25982139,OPEN,33,31,2,0,1,5/16/2013 6:57:54 PM,5/15/2013 7:37:16 PM,VotreNom,5/16/2013 6:58:39 PM,VotreNom,2.25982139174212,48.8431044947352
215,21210,21210 - PERI 2 (MONTROUGE),8 RUE GABRIEL PERI - 92120 MONTROUGE,48.81781709,2.32403128,OPEN,32,30,2,0,1,5/16/2013 7:02:28 PM,5/15/2013 7:37:16 PM,VotreNom,5/16/2013 7:03:41 PM,VotreNom,2.32403127829727,48.8178170939015
216,16129,16129 - BOIS DE BOULOGNE / PORTE DE LA MUETTE 1,CHEMIN DE LA CEINTURE DU LAC INTERIEUR / AVENUE DE SAINT CLOUD - 75016 PARIS,48.86208187,2.26174639,OPEN,42,36,6,0,1,5/16/2013 6:59:00 PM,5/15/2013 7:37:16 PM,VotreNom,5/16/2013 6:59:44 PM,VotreNom,2.26174638604115,48.8620818670338
217,15118,15118 - PLACE BIENVENUE,11 RUE DE L'ARRIVEE - 75015 PARIS,48.84319883,2.32225738,OPEN,22,22,0,0,1,5/16/2013 6:57:53 PM,5/15/2013 7:37:16 PM,VotreNom,5/16/2013 6:58:39 PM,VotreNom,2.32225737727924,48.8431988280709
218,8037,08037 - MALSHERBES MONCEAU,75 RUE DE MONCEAU - 75008 PARIS,48.87960646,2.31455352,OPEN,37,36,1,0,1,5/16/2013 7:04:54 PM,5/15/2013 7:37:16 PM,VotreNom,5/16/2013 7:05:41 PM,VotreNom,2.31455352418705,48.8796064571805
219,20012,20012 - BUZENVAL VIGNOLES,90 RUE BUZENVAL - 75020 PARIS,48.85392328,2.40003875,OPEN,15,10,4,0,1,5/16/2013 6:57:32 PM,5/15/2013 7:37:16 PM,VotreNom,5/16/2013 6:58:39 PM,VotreNom,2.40003874927038,48.8539232760833
220,2006,02006 - PLACE DES VICTOIRES,2 RUE D'ABOUKIR - 75002 PARIS,48.86600263,2.34192041,OPEN,24,23,1,0,1,5/16/2013 6:59:59 PM,5/15/2013 7:37:16 PM,VotreNom,5/16/2013 7:00:40 PM,VotreNom,2.34192041196232,48.8660026325651
221,17022,17022 - PLACE DE WAGRAM,67 BOULEVARD PEREIRE - 75017 PARIS,48.88707061,2.30411112,OPEN,45,31,13,0,1,5/16/2013 7:05:05 PM,5/15/2013 7:37:16 PM,VotreNom,5/16/2013 7:05:41 PM,VotreNom,2.30411112453145,48.8870706075812
222,11103,11103 - RICHARD LENOIR,21 RUE PELEE - 75011 PARIS,48.86003931,2.37098437,OPEN,47,3,44,0,1,5/16/2013 7:03:16 PM,5/15/2013 7:37:16 PM,VotreNom,5/16/2013 7:03:41 PM,VotreNom,2.37098437423997,48.8600393112308
223,10034,10034 - CHAPELLE LOUIS BLANC,68 RUE LOUIS BLANC - 75010 PARIS,48.88384932,2.36005309,OPEN,20,0,20,0,1,5/16/2013 7:01:21 PM,5/15/2013 7:37:16 PM,VotreNom,5/16/2013 7:01:40 PM,VotreNom,2.36005308898536,48.8838493184415
224,10004,10004 - METZ,7 RUE DE METZ - 75010 PARIS,48.87089343,2.35352157,OPEN,63,0,62,0,1,5/16/2013 7:04:36 PM,5/15/2013 7:37:16 PM,VotreNom,5/16/2013 7:05:41 PM,VotreNom,2.35352156501113,48.870893425956
225,13011,13011 - COMPO FORMIO,112 BD DE L'HOPITAL - 75013 PARIS,48.83540571,2.35821835,OPEN,15,3,12,0,1,5/16/2013 7:00:35 PM,5/15/2013 7:37:16 PM,VotreNom,5/16/2013 7:01:40 PM,VotreNom,2.35821834503048,48.8354057129539
226,8030,08030 - MONTAIGNE,25 RUE BAYARD - 75008 PARIS,48.86729324,2.30769161,OPEN,35,34,1,0,1,5/16/2013 6:59:13 PM,5/15/2013 7:37:16 PM,VotreNom,5/16/2013 6:59:44 PM,VotreNom,2.30769160565033,48.8672932362145
227,15065,15065 - HUMBERT,23 RUE EMILE ZOLA - 75015 PARIS,48.84638377,2.28000841,OPEN,63,1,62,0,1,5/16/2013 7:00:02 PM,5/15/2013 7:37:16 PM,VotreNom,5/16/2013 7:00:40 PM,VotreNom,2.28000841190417,48.8463837730034
228,18007,18007 - GOUTTE D' OR,65 RUE DE LA GOUTTE D'OR - 75018 PARIS,48.88519801,2.34994199,OPEN,18,10,8,0,1,5/16/2013 7:00:06 PM,5/15/2013 7:37:16 PM,VotreNom,5/16/2013 7:00:40 PM,VotreNom,2.34994199168831,48.88519800938
229,17007,17007 - NAVIER,FACE 57 RUE NAVIER - 75017 PARIS,48.89591412,2.32272737,OPEN,34,8,24,0,1,5/16/2013 7:05:13 PM,5/15/2013 7:37:16 PM,VotreNom,5/16/2013 7:05:41 PM,VotreNom,2.32272736705482,48.8959141175002
230,31709,31709 - MARCEL (BAGNOLET),FACE AU 184 RUE ETIENNE MARCEL - 93170 BAGNOLET,48.85705039,2.42254996,OPEN,23,18,5,0,1,5/16/2013 6:59:13 PM,5/15/2013 7:37:16 PM,VotreNom,5/16/2013 6:59:44 PM,VotreNom,2.42254995670981,48.8570503947438
231,31008,31008 - VINCENNES (MONTREUIL),7 BIS RUE DE VINCENNES-93100 MONTREUIL,48.85770213,2.43736866,OPEN,56,50,2,0,1,5/16/2013 6:55:44 PM,5/15/2013 7:37:16 PM,VotreNom,5/16/2013 6:56:39 PM,VotreNom,2.437368661295,48.857702134021
232,17109,17109 - BOIS LE PRÊTRE,22 BD DE BOIS LE PRETRE - 75017 PARIS,48.89953828,2.32013366,OPEN,31,19,10,0,1,5/16/2013 6:56:16 PM,5/15/2013 7:37:16 PM,VotreNom,5/16/2013 6:56:39 PM,VotreNom,2.32013366143527,48.8995382830581
233,6026,06026 - SAINT PLACIDE CHERCHE MIDI,28 RUE SAINT PLACIDE - 75006 PARIS,48.8491399,2.32517539,OPEN,66,61,5,0,1,5/16/2013 7:04:05 PM,5/15/2013 7:37:16 PM,VotreNom,5/16/2013 7:04:39 PM,VotreNom,2.32517538941279,48.8491399032183
234,13020,13020 - MENDES FRANCE,FACE 15 RUE PAUL KLEE - 75013 PARIS,48.83908422,2.37053233,OPEN,45,44,1,0,1,5/16/2013 7:01:26 PM,5/15/2013 7:37:16 PM,VotreNom,5/16/2013 7:02:40 PM,VotreNom,2.37053233098562,48.8390842183095
235,12015,12015 - NATION PICPUS,FACE 67 BOULEVARD DE PICPUS - 75012 PARIS,48.84696436,2.39986828,OPEN,36,31,3,0,1,5/16/2013 7:04:07 PM,5/15/2013 7:37:16 PM,VotreNom,5/16/2013 7:04:39 PM,VotreNom,2.39986827742883,48.846964359503
236,15054,15054 - CHANDON,293 RUE LECOURBE - 75015 PARIS,48.83797034,2.28758231,OPEN,19,0,18,0,1,5/16/2013 7:04:52 PM,5/15/2013 7:37:16 PM,VotreNom,5/16/2013 7:05:41 PM,VotreNom,2.28758230704366,48.8379703420121
237,5001,05001 - SAINT GERMAIN HARPE,32 RUE DE LA HARPE - 75005 PARIS,48.85158134,2.34370454,OPEN,43,5,38,0,1,5/16/2013 7:04:48 PM,5/15/2013 7:37:16 PM,VotreNom,5/16/2013 7:05:41 PM,VotreNom,2.34370453672278,48.8515813400282
238,15064,15064 - JAVEL,DEV 5 AVENUE EMILE ZOLA - 75015 PARIS,48.84629492,2.27841391,OPEN,45,11,34,0,1,5/16/2013 7:04:52 PM,5/15/2013 7:37:16 PM,VotreNom,5/16/2013 7:05:41 PM,VotreNom,2.27841391259378,48.8462949182689
239,15030,15030 - LINOIS,66 RUE EMERIAU - 75015 PARIS,48.84804579,2.28438063,OPEN,33,12,21,0,1,5/16/2013 7:04:33 PM,5/15/2013 7:37:16 PM,VotreNom,5/16/2013 7:05:41 PM,VotreNom,2.28438063370106,48.8480457862832
240,8005,08005 - MADELEINE,04 PLACE DE LA MADELEINE - 75008 PARIS,48.86909009,2.32442963,OPEN,37,28,9,0,1,5/16/2013 7:00:16 PM,5/15/2013 7:37:16 PM,VotreNom,5/16/2013 7:00:40 PM,VotreNom,2.32442963049651,48.8690900883376
241,12111,12111 - DECAEN CANNEBIERE,73 RUE CLAUDE DECAEN - 75012 PARIS,48.83761417,2.39725378,OPEN,27,5,22,0,1,5/16/2013 7:04:20 PM,5/15/2013 7:37:16 PM,VotreNom,5/16/2013 7:04:39 PM,VotreNom,2.39725378219574,48.8376141703795
242,16015,16015 - RUE DE BASSANO,1 RUE DE BASSANO - 75016 PARIS,48.86814451,2.2961496,OPEN,15,15,0,0,1,5/16/2013 6:57:10 PM,5/15/2013 7:37:16 PM,VotreNom,5/16/2013 6:57:39 PM,VotreNom,2.29614960098598,48.8681445104821
243,17041,17041 - PORTE DE VILLIERS,51 RUE GUERSANT - 75017 PARIS,48.88287775,2.28766737,OPEN,39,16,22,0,1,5/16/2013 7:01:44 PM,5/15/2013 7:37:16 PM,VotreNom,5/16/2013 7:02:40 PM,VotreNom,2.28766737081492,48.882877751786
244,13023,13023 - BOBILLOT VERLAINE,30 RUE BOBILLOT - 75013 PARIS,48.82860289,2.35303458,OPEN,26,22,4,1,1,5/16/2013 7:04:29 PM,5/15/2013 7:37:16 PM,VotreNom,5/16/2013 7:05:41 PM,VotreNom,2.35303458295143,48.8286028908451
245,18111,18111 - FELIZ ZIEM,2 RUE FELIX ZIEM - 75018 PARIS,48.8894963,2.33339366,OPEN,24,22,1,1,1,5/16/2013 7:01:19 PM,5/15/2013 7:37:16 PM,VotreNom,5/16/2013 7:01:40 PM,VotreNom,2.33339365880439,48.8894963048682
246,6022,06022 - MARCHE SAINT GERMAIN - MABILLON,17 RUE LOBINEAU - 75006 PARIS,48.85165969,2.33550467,OPEN,21,3,18,0,1,5/16/2013 7:02:58 PM,5/15/2013 7:37:16 PM,VotreNom,5/16/2013 7:03:41 PM,VotreNom,2.33550466500982,48.8516596929124
247,14010,14010 - JEAN MOULIN ALESIA,12 AVENUE JEAN MOULIN - 75014 PARIS,48.8274269,2.32576033,OPEN,39,33,6,0,1,5/16/2013 6:59:43 PM,5/15/2013 7:37:16 PM,VotreNom,5/16/2013 7:00:40 PM,VotreNom,2.32576033284606,48.8274269000826
248,21206,21206 - PERI (MONTROUGE),35/37 RUE GABRIEL PERI - 92120 MONTROUGE,48.81823373,2.32088453,OPEN,50,46,4,0,1,5/16/2013 7:04:25 PM,5/15/2013 7:37:16 PM,VotreNom,5/16/2013 7:05:41 PM,VotreNom,2.3208845325463,48.8182337326032
249,16002,16002 - PERGOLESE,FACE 25 RUE PERGOLESE - 75016 PARIS,48.87518496,2.28421943,OPEN,38,36,1,0,1,5/16/2013 6:58:20 PM,5/15/2013 7:37:16 PM,VotreNom,5/16/2013 6:58:39 PM,VotreNom,2.28421943206063,48.8751849611119
250,6031,06031 - SAINT MICHEL SARRAZIN,5 RUE PIERRE SARAZIN - 75006 PARIS,48.85083365,2.34219823,OPEN,34,32,2,0,1,5/16/2013 7:00:29 PM,5/15/2013 7:37:16 PM,VotreNom,5/16/2013 7:01:40 PM,VotreNom,2.34219822806778,48.8508336544036
251,15120,15120 - AVIA,26 RUE DU COLONEL PIERRE AVIA - 75015 PARIS,48.82968433,2.27534259,OPEN,29,10,19,0,1,5/16/2013 7:02:33 PM,5/15/2013 7:37:16 PM,VotreNom,5/16/2013 7:03:41 PM,VotreNom,2.27534258685028,48.8296843300915
252,11018,11018 - SAINT MAUR AVENUE DE LA REPUBLIQUE,87 RUE DE SAINT MAUR - 75011 PARIS,48.86421167,2.37825584,OPEN,36,15,20,0,1,5/16/2013 7:03:09 PM,5/15/2013 7:37:16 PM,VotreNom,5/16/2013 7:03:41 PM,VotreNom,2.3782558415129,48.8642116747038
253,17037,17037 - BAYERN PEREIRE,40 RUE BAYEN - 75017 PARIS,48.88183072,2.29214067,OPEN,22,17,5,0,1,5/16/2013 7:05:12 PM,5/15/2013 7:37:16 PM,VotreNom,5/16/2013 7:05:41 PM,VotreNom,2.2921406658289,48.881830717501
254,8052,08052 - WASHINGTON,2 RUE BALZAC - 75008 PARIS,48.87288299,2.29997293,OPEN,30,29,1,0,1,5/16/2013 7:00:56 PM,5/15/2013 7:37:16 PM,VotreNom,5/16/2013 7:01:40 PM,VotreNom,2.29997293264271,48.8728829909745
255,20133,20133 - RASSELINS,2 RUE DES RASSELINS - 75020 PARIS,48.85352869,2.40961536,OPEN,27,18,9,0,1,5/16/2013 7:05:25 PM,5/15/2013 7:37:16 PM,VotreNom,5/16/2013 7:05:41 PM,VotreNom,2.40961536277555,48.853528685941
256,19025,19025 - BOTZARIS VERSION 2,FACE 80 RUE BOTZARIS - 75019 PARIS,48.87956145,2.38896041,OPEN,17,13,4,1,1,5/16/2013 6:58:56 PM,5/15/2013 7:37:16 PM,VotreNom,5/16/2013 6:59:44 PM,VotreNom,2.38896041078391,48.8795614522371
257,42206,42206 - PARIS 2 (CHARENTON),111 RUE DE PARIS - 94220 CHARENTON,48.82378409,2.41001354,OPEN,23,0,23,0,1,5/16/2013 7:03:03 PM,5/15/2013 7:37:16 PM,VotreNom,5/16/2013 7:03:41 PM,VotreNom,2.41001354040088,48.8237840896708
258,8108,08108 - L'ISLY,10-12 RUE DE L'ISLY - 75008 PARIS,48.87482319,2.32529612,OPEN,56,55,1,0,1,5/16/2013 6:58:16 PM,5/15/2013 7:37:16 PM,VotreNom,5/16/2013 6:58:39 PM,VotreNom,2.3252961178147,48.874823190321
259,7024,07024 - AVENUE RAPP,43 AVENUE RAPP - 75007 PARIS,48.85816904,2.30052833,OPEN,31,10,21,0,1,5/16/2013 6:56:51 PM,5/15/2013 7:37:16 PM,VotreNom,5/16/2013 6:57:39 PM,VotreNom,2.30052833004388,48.8581690434843
260,21016,21016 - POINT DU JOUR (BOULOGNE-BILLANCOURT),118 RUE DU POINT DU JOUR - 92100 BOULOGNE BILLANCOURT,48.82875314,2.24591147,OPEN,25,3,21,0,1,5/16/2013 6:59:50 PM,5/15/2013 7:37:16 PM,VotreNom,5/16/2013 7:00:40 PM,VotreNom,2.24591146701463,48.8287531414365
261,43010,43010 - JARRY (VINCENNES),139 RUE DE LA JARRY - 94300 VINCENNES,48.84974496,2.45196031,OPEN,25,9,15,0,1,5/16/2013 6:58:49 PM,5/15/2013 7:37:16 PM,VotreNom,5/16/2013 6:59:44 PM,VotreNom,2.45196030630884,48.8497449569768
262,18012,18012 - DOUDEAUVILLE STEPHENSON,51 RUE STEPHENSON - 75018 PARIS,48.8888649,2.35596672,OPEN,36,17,19,0,1,5/16/2013 6:58:47 PM,5/15/2013 7:37:16 PM,VotreNom,5/16/2013 6:59:44 PM,VotreNom,2.35596672141758,48.8888648960567
263,9024,09024 - LAFAYETTE TAITBOUT,27 RUE TAITBOUT - 75009 PARIS,48.87338581,2.33529684,OPEN,53,50,1,0,1,5/16/2013 7:01:10 PM,5/15/2013 7:37:16 PM,VotreNom,5/16/2013 7:01:40 PM,VotreNom,2.33529683976621,48.8733858054296
264,21011,21011 - SILLY (BOULOGNE BILLANCOURT),153 RUE DE SILLY - BOULOGNE BILLANCOURT,48.83227466,2.2340164,OPEN,23,8,15,0,1,5/16/2013 6:59:15 PM,5/15/2013 7:37:16 PM,VotreNom,5/16/2013 6:59:44 PM,VotreNom,2.23401640134985,48.832274660165
265,9108,09108 - ROCHECHOUART MAUBEUGE,25 RUE DE ROCHECHOUART - 75009 PARIS,48.87789001,2.3447856,OPEN,33,18,15,0,1,5/16/2013 6:59:54 PM,5/15/2013 7:37:16 PM,VotreNom,5/16/2013 7:00:40 PM,VotreNom,2.34478560298721,48.8778900149742
266,7011,07011 - ST DOMINIQUE,30 BIS RUE LAS CASES - 75007 PARIS,48.85906839,2.31862422,OPEN,22,20,2,0,1,5/16/2013 7:00:00 PM,5/15/2013 7:37:16 PM,VotreNom,5/16/2013 7:00:40 PM,VotreNom,2.31862422112504,48.8590683949631
267,18004,18004 - ABBESSES,2 RUE DE LA VIEUVILLE - 75018 PARIS,48.88448239,2.3388123,OPEN,13,9,4,1,1,5/16/2013 7:03:57 PM,5/15/2013 7:37:16 PM,VotreNom,5/16/2013 7:04:39 PM,VotreNom,2.33881229702936,48.8844823927275
268,18109,18109 - RIQUET PAJOL,55 RUE PAJOL - 75018 PARIS,48.88959697,2.3628536,OPEN,46,34,7,0,1,5/16/2013 6:59:26 PM,5/15/2013 7:37:16 PM,VotreNom,5/16/2013 7:00:40 PM,VotreNom,2.36285360426254,48.8895969708509
269,20118,20118 - ORTEAUX MOURAUD,100 RUE DES ORTEAUX - 75020 PARIS,48.85558643,2.40876291,OPEN,23,20,2,0,1,5/16/2013 7:01:07 PM,5/15/2013 7:37:16 PM,VotreNom,5/16/2013 7:01:40 PM,VotreNom,2.40876290776468,48.8555864284787
270,14117,14117 - MOUCHOTTE,5 RUE DU COMMANDANT RENE MOUCHOTTE - 75014 PARIS,48.83932503,2.32095413,OPEN,39,37,0,0,1,5/16/2013 6:59:55 PM,5/15/2013 7:37:16 PM,VotreNom,5/16/2013 7:00:40 PM,VotreNom,2.32095412572891,48.8393250250605
271,33010,33010 - HUGO (AUBERVILLIERS),161 AVENUE VICTOR HUGO - 93300 AUBERVILLIERS,48.91110481,2.37914374,OPEN,32,25,7,0,1,5/16/2013 7:00:03 PM,5/15/2013 7:37:16 PM,VotreNom,5/16/2013 7:00:40 PM,VotreNom,2.37914374230259,48.9111048097348
272,13103,13103 - SAINT MARCEL,89 BOULEVARD DE L'HOPITAL - 75013 PARIS,48.83772769,2.36046034,OPEN,50,49,1,0,1,5/16/2013 7:02:41 PM,5/15/2013 7:37:16 PM,VotreNom,5/16/2013 7:03:41 PM,VotreNom,2.36046033647682,48.8377276874544
273,5009,05009 - SQUARE VIVIANI,6 RUE DU FOUARRE - 75005 PARIS,48.85165118,2.34746333,OPEN,16,6,10,0,1,5/16/2013 7:03:17 PM,5/15/2013 7:37:16 PM,VotreNom,5/16/2013 7:03:41 PM,VotreNom,2.34746333451967,48.8516511793672
274,22401,22401 - DE GAULLE (MALAKOFF),BOULEVARD CHARLES DE GAULLE (STATION DE METRO) - 92240 MALAKOFF,48.82252831,2.29863165,OPEN,53,50,3,0,1,5/16/2013 6:58:16 PM,5/15/2013 7:37:16 PM,VotreNom,5/16/2013 6:58:39 PM,VotreNom,2.29863165411976,48.8225283060041
275,17009,17009 - BODIN AVENUE DE CLICHY,2 RUE PAUL BODIN - 75017 PARIS,48.89263392,2.31731326,OPEN,33,5,28,0,1,5/16/2013 7:05:13 PM,5/15/2013 7:37:16 PM,VotreNom,5/16/2013 7:05:41 PM,VotreNom,2.31731325811075,48.8926339214324
276,21305,21305 - MADAULE (ISSY LES MOULINEAUX),PLACE MADAULE - 92130 ISSY LES MOULINEAUX,48.8241259,2.26064599,OPEN,25,0,25,0,1,5/16/2013 7:04:27 PM,5/15/2013 7:37:16 PM,VotreNom,5/16/2013 7:05:41 PM,VotreNom,2.26064598548983,48.8241259046209
277,9029,09029 - TRINITE,62 RUE SAINT LAZARE - 75009 PARIS,48.87685933,2.33276238,OPEN,39,22,17,0,1,5/16/2013 7:04:51 PM,5/15/2013 7:37:16 PM,VotreNom,5/16/2013 7:05:41 PM,VotreNom,2.33276238001163,48.8768593272933
278,34007,34007 - ROSIERS (SAINT OUEN),43-45 RUE BLANQUI / RUE DES ROSIERS - 93400 SAINT OUEN,48.90536225,2.33738965,OPEN,25,4,21,0,1,5/16/2013 6:59:00 PM,5/15/2013 7:37:16 PM,VotreNom,5/16/2013 6:59:44 PM,VotreNom,2.33738964850197,48.9053622514169
279,12040,12040 - PORTE DE CHARENTON,FACE 2 AV. DE LA PORTE DE CHARENTON - 75012 PARIS,48.83158813,2.39874566,OPEN,67,57,10,0,1,5/16/2013 7:01:06 PM,5/15/2013 7:37:16 PM,VotreNom,5/16/2013 7:01:40 PM,VotreNom,2.39874566494855,48.8315881251744
280,17017,17017 - PONT CARDINET,167 RUE DE ROME - 75017 PARIS,48.88714045,2.31452161,OPEN,32,17,15,0,1,5/16/2013 7:04:26 PM,5/15/2013 7:37:16 PM,VotreNom,5/16/2013 7:05:41 PM,VotreNom,2.31452160564085,48.8871404518668
281,13111,13111 - CIMETIERE DE GENTILLY,RUE DE LA POTERNE DES PEUPLIERS - 75013 PARIS,48.81857442,2.35326018,OPEN,54,2,52,0,1,5/16/2013 6:55:54 PM,5/15/2013 7:37:16 PM,VotreNom,5/16/2013 6:56:39 PM,VotreNom,2.35326018374092,48.8185744158395
282,8001,08001 - PETIT PALAIS,AV. DUTUIT - 75008 PARIS,48.8668438,2.31577971,OPEN,41,27,14,0,1,5/16/2013 7:00:50 PM,5/15/2013 7:37:16 PM,VotreNom,5/16/2013 7:01:40 PM,VotreNom,2.31577971341002,48.8668438032522
283,4013,04013 - FRANCS BOURGEOIS,50 RUE VIEILLE DU TEMPLE - 75004 PARIS,48.85851071,2.35863358,OPEN,27,2,23,0,1,5/16/2013 7:05:22 PM,5/15/2013 7:37:16 PM,VotreNom,5/16/2013 7:05:41 PM,VotreNom,2.35863357911745,48.8585107129923
284,13038,13038 - CHOISY POINT D'IVRY,28 AVENUE DE CHOISY - 75013 PARIS,48.82190797,2.36333471,OPEN,24,2,22,0,1,5/16/2013 7:03:31 PM,5/15/2013 7:37:16 PM,VotreNom,5/16/2013 7:04:39 PM,VotreNom,2.36333471061477,48.8219079688117
285,10005,10005 - CONSERVATOIRE,59 RUE DES PETITES ECURIES - 75010 PARIS,48.87397217,2.34838876,OPEN,17,6,11,0,1,5/16/2013 7:03:32 PM,5/15/2013 7:37:16 PM,VotreNom,5/16/2013 7:04:39 PM,VotreNom,2.34838875750481,48.8739721723737
286,14032,14032 - MOUTON DUVERNET - MAIRIE DU 14EME,26 RUE MOUTON DUVERNET - 75014 PARIS,48.83250128,2.32540117,OPEN,31,26,4,0,1,5/16/2013 7:04:28 PM,5/15/2013 7:37:16 PM,VotreNom,5/16/2013 7:05:41 PM,VotreNom,2.32540116669297,48.8325012787034
287,22003,22003 - BEFFROY (NEUILLY),3 RUE BEFFROY - 92200 NEUILLY,48.88670498,2.26126352,OPEN,25,18,6,0,1,5/16/2013 7:05:24 PM,5/15/2013 7:37:16 PM,VotreNom,5/16/2013 7:05:41 PM,VotreNom,2.26126351803174,48.8867049831048
288,5026,05026 - MOUFFETARD SAINT MEDARD,3 RUE PASCAL - 75005 PARIS,48.83899382,2.34993205,OPEN,49,0,49,0,1,5/16/2013 7:02:16 PM,5/15/2013 7:37:16 PM,VotreNom,5/16/2013 7:02:40 PM,VotreNom,2.34993205295773,48.8389938245433
289,14114,14114 - PLACE DE CATALOGNE,4 RUE ALAIN - 75014 PARIS,48.83729331,2.31748293,OPEN,43,43,0,1,1,5/16/2013 7:00:57 PM,5/15/2013 7:37:16 PM,VotreNom,5/16/2013 7:01:40 PM,VotreNom,2.31748293063916,48.8372933093611
290,23010,23010 - VOLTAIRE (LEVALLOIS),47 RUE VOLTAIRE - 92300 LEVALLOIS-PERRET,48.89196233,2.28420499,OPEN,25,16,9,0,1,5/16/2013 7:00:34 PM,5/15/2013 7:37:16 PM,VotreNom,5/16/2013 7:01:40 PM,VotreNom,2.28420499011362,48.8919623289648
291,35014,35014 - DE GAULLE (PANTIN),139 AVENUE JEAN LOLIVE / MAIL CHARLES DE GAULLE - 93500 PANTIN,48.89326866,2.41271573,OPEN,25,23,2,0,1,5/16/2013 6:55:34 PM,5/15/2013 7:37:16 PM,VotreNom,5/16/2013 6:56:39 PM,VotreNom,2.41271573338873,48.8932686646974
292,15114,15114 - PASTEUR COTENTIN,FACE 1 RUE DU COTENTIN - 75015 PARIS,48.83893691,2.31616841,OPEN,33,30,3,1,1,5/16/2013 7:04:41 PM,5/15/2013 7:37:16 PM,VotreNom,5/16/2013 7:05:41 PM,VotreNom,2.31616841206321,48.8389369099596
293,5031,05031 - LACEPEDE,2 RUE LACEPEDE - 75005 PARIS,48.84367485,2.35461598,OPEN,55,19,31,0,1,5/16/2013 7:03:42 PM,5/15/2013 7:37:16 PM,VotreNom,5/16/2013 7:04:39 PM,VotreNom,2.35461598268319,48.8436748454377
294,15019,15019 - VAUGIRARD CAMBRONNE,3 RUE PAUL BARRUEL - 75015 PARIS,48.84005772,2.30450742,OPEN,37,16,12,0,1,5/16/2013 6:57:36 PM,5/15/2013 7:37:16 PM,VotreNom,5/16/2013 6:58:39 PM,VotreNom,2.30450742096121,48.8400577188391
295,43006,43006 - MINIMES (VINCENNES),30 AVENUE DES MINIMES - 94300 VINCENNES,48.84148686,2.43079345,OPEN,28,9,14,0,1,5/16/2013 6:57:43 PM,5/15/2013 7:37:16 PM,VotreNom,5/16/2013 6:58:39 PM,VotreNom,2.43079345113368,48.8414868563002
296,4104,04104 - SEBASTOPOL RAMBUTEAU,FACE 40 BOULEVARD SEBASTOPOL - 75004 PARIS,48.8618831,2.35022098,OPEN,16,0,16,0,1,5/16/2013 7:00:03 PM,5/15/2013 7:37:16 PM,VotreNom,5/16/2013 7:00:40 PM,VotreNom,2.35022097609623,48.8618831022142
297,14027,14027 - ALESIA GERGOVIE,FACE 83 RUE DE GERGOVIE - 75014 PARIS,48.83088717,2.3188821,OPEN,36,22,13,0,1,5/16/2013 7:04:31 PM,5/15/2013 7:37:16 PM,VotreNom,5/16/2013 7:05:41 PM,VotreNom,2.31888210120735,48.8308871745524
298,15043,15043 - BRANCION,122 RUE BRANCION - 75015 PARIS,48.82905422,2.30141744,OPEN,11,9,2,0,1,5/16/2013 7:03:31 PM,5/15/2013 7:37:16 PM,VotreNom,5/16/2013 7:04:39 PM,VotreNom,2.30141743604385,48.8290542164508
299,4002,04002 - MARCHE AUX FLEURS,PLACE LOUIS LEPINE - 75004 PARIS,48.85525336,2.34735645,OPEN,24,19,5,0,1,5/16/2013 6:58:23 PM,5/15/2013 7:37:16 PM,VotreNom,5/16/2013 6:58:39 PM,VotreNom,2.34735644764262,48.8552533608443
300,21503,21503 - LEDRU ROLLIN (SURESNES),13/15 RUE LEDRU ROLLIN - 92150 SURESNES,48.87092049,2.22958935,OPEN,24,24,0,0,1,5/16/2013 7:03:19 PM,5/15/2013 7:37:16 PM,VotreNom,5/16/2013 7:03:41 PM,VotreNom,2.22958935220664,48.8709204876336
301,8045,08045 - ALMA,FACE 3 AVENUE MONTAIGNE - 75008 PARIS,48.86492098,2.30254918,OPEN,57,32,21,0,1,5/16/2013 6:55:26 PM,5/15/2013 7:37:16 PM,VotreNom,5/16/2013 6:56:39 PM,VotreNom,2.30254918238593,48.8649209825384
302,11105,11105 - REPUBLIQUE PARMENTIER,82 AVENUE PARMENTIER - 75011 PARIS,48.86454163,2.3751952,OPEN,50,15,35,0,1,5/16/2013 7:04:30 PM,5/15/2013 7:37:16 PM,VotreNom,5/16/2013 7:05:41 PM,VotreNom,2.3751951967246,48.8645416268121
303,19035,19035 - PORTE CHAUMONT,RUE SIGMUND FREUD / PORTE CHAUMONT - 75019 PARIS,48.8857333,2.39784642,OPEN,21,9,11,0,1,5/16/2013 6:58:00 PM,5/15/2013 7:37:16 PM,VotreNom,5/16/2013 6:58:39 PM,VotreNom,2.39784641538318,48.8857332998587
304,18103,18103 - CHARLES HERMITE,45 RUE CHARLES HERMITE - 75018 PARIS,48.89890275,2.36473249,OPEN,23,0,0,0,1,5/16/2013 6:55:42 PM,5/15/2013 7:37:16 PM,VotreNom,5/16/2013 6:56:39 PM,VotreNom,2.36473249417403,48.8989027534366
305,15113,15113 - FALGUIERE ARSONVAL,2 RUE D'ARSONVAL - 75015 PARIS,48.8404004,2.31311787,OPEN,25,23,1,0,1,5/16/2013 6:59:34 PM,5/15/2013 7:37:16 PM,VotreNom,5/16/2013 7:00:40 PM,VotreNom,2.31311786729751,48.8404004036545
306,15009,15009 - SUFFREN,140 AVENUE DE SUFFREN - 75015 PARIS,48.84717561,2.30705215,OPEN,46,0,46,0,1,5/16/2013 7:00:45 PM,5/15/2013 7:37:16 PM,VotreNom,5/16/2013 7:01:40 PM,VotreNom,2.30705214759683,48.8471756149276
307,9022,09022 - LAFITTE ROSSINI,19 RUE ROSSINI - 75009 PARIS,48.87334628,2.33798087,OPEN,33,26,5,0,1,5/16/2013 7:05:22 PM,5/15/2013 7:37:16 PM,VotreNom,5/16/2013 7:05:41 PM,VotreNom,2.3379808677017,48.8733462751051
308,23006,23006 - GUESDE (LEVALLOIS),8 RUE JULES GUESDE - 92300 LEVALLOIS-PERRET,48.89086032,2.29500037,OPEN,25,3,22,0,1,5/16/2013 7:04:24 PM,5/15/2013 7:37:16 PM,VotreNom,5/16/2013 7:04:39 PM,VotreNom,2.29500037013537,48.8908603228911
309,19019,19019 - PETIT HONNEGER,124 RUE PETIT - 75019 PARIS,48.88638963,2.39363751,OPEN,22,0,22,0,1,5/16/2013 7:01:31 PM,5/15/2013 7:37:16 PM,VotreNom,5/16/2013 7:02:40 PM,VotreNom,2.3936375144336,48.8863896349247
310,13036,13036 - TOLBIAC NATIONALE,86 RUE TOLBIAC - 75013 PARIS,48.8269002,2.3651776,OPEN,36,27,7,0,1,5/16/2013 7:02:42 PM,5/15/2013 7:37:16 PM,VotreNom,5/16/2013 7:03:41 PM,VotreNom,2.36517760348358,48.8269001997157
311,17025,17025 - COURCELLES,2 RUE DE CHAZELLES - 75017 PARIS,48.87943038,2.30346741,OPEN,35,33,2,0,1,5/16/2013 7:05:24 PM,5/15/2013 7:37:16 PM,VotreNom,5/16/2013 7:05:41 PM,VotreNom,2.30346740668713,48.8794303755264
312,20020,20020 - PYRENEES RENOUVIER,183 RUE DES PYRENEES - 75020 PARIS,48.86095933,2.40042185,OPEN,28,0,0,1,1,5/16/2013 7:03:59 PM,5/15/2013 7:37:16 PM,VotreNom,5/16/2013 7:04:39 PM,VotreNom,2.40042185204213,48.8609593322922
313,16039,16039 - VERSAILLES EXELMANS,27 BOULEVARD EXELMANS - 75016 PARIS,48.84096295,2.26439412,OPEN,46,25,21,0,1,5/16/2013 6:59:38 PM,5/15/2013 7:37:16 PM,VotreNom,5/16/2013 7:00:40 PM,VotreNom,2.26439411807511,48.8409629526469
314,13114,13114 - NATIONALE DUCHAMP (PROP 1),46 RUE NATIONALE - 75013 PARIS,48.82481084,2.36773549,OPEN,22,20,2,0,1,5/16/2013 7:03:30 PM,5/15/2013 7:37:16 PM,VotreNom,5/16/2013 7:04:39 PM,VotreNom,2.36773548985314,48.8248108408095
315,13107,13107 - MARCHAND SANTE,12 PASSAGE VICTOR MARCHAND - 75013 PARIS,48.82884022,2.34196744,OPEN,45,11,34,0,1,5/16/2013 6:58:45 PM,5/15/2013 7:37:16 PM,VotreNom,5/16/2013 6:59:44 PM,VotreNom,2.34196743682722,48.8288402183865
316,15034,15034 - COMMERCE,2 RUE LAKANAL - 75015 PARIS,48.84442592,2.29404143,OPEN,55,20,35,0,1,5/16/2013 6:56:16 PM,5/15/2013 7:37:16 PM,VotreNom,5/16/2013 6:56:39 PM,VotreNom,2.29404143328219,48.8444259195454
317,13037,13037 - IVRY BAUDICOURT,76 AVENUE D'IVRY - 75013 PARIS,48.824696,2.36310607,OPEN,20,19,1,0,1,5/16/2013 7:03:43 PM,5/15/2013 7:37:16 PM,VotreNom,5/16/2013 7:04:39 PM,VotreNom,2.36310607357751,48.824695995415
318,14126,14126 - VAILLANT COUTURIER,155 AVENUE PAUL VAILLANT COUTURIER - 75014 PARIS,48.81698098,2.33260969,OPEN,42,41,1,0,1,5/16/2013 6:58:12 PM,5/15/2013 7:37:16 PM,VotreNom,5/16/2013 6:58:39 PM,VotreNom,2.33260968792192,48.8169809812593
319,4014,04014 - ARCHIVES BLANCS MANTEAUX,29 RUE DES BLANCS MANTEAUX - 75004 PARIS,48.85940272,2.35592749,OPEN,30,2,28,0,1,5/16/2013 7:05:04 PM,5/15/2013 7:37:16 PM,VotreNom,5/16/2013 7:05:41 PM,VotreNom,2.355927486535,48.8594027196436
320,5033,05033 - SAINT SEVERIN,42 RUE SAINT SEVERIN - 75005 PARIS,48.85270565,2.34413776,OPEN,30,9,21,0,1,5/16/2013 7:04:28 PM,5/15/2013 7:37:16 PM,VotreNom,5/16/2013 7:05:41 PM,VotreNom,2.34413776324569,48.8527056477052
321,13109,13109 - BRILLAT SAVARIN,16 RUE BRILLAT SAVARIN - 75013 PARIS,48.8222031,2.35042203,OPEN,21,0,20,0,1,5/16/2013 7:02:36 PM,5/15/2013 7:37:16 PM,VotreNom,5/16/2013 7:03:41 PM,VotreNom,2.35042203291393,48.8222030963413
322,908,00908 - MALTE - FAUBOURG DU TEMPLE,65 RUE DE MALTE - 75011 PARIS,48.86800895,2.365494,OPEN,19,2,0,0,1,5/13/2013 7:55:16 AM,5/15/2013 7:37:16 PM,VotreNom,5/15/2013 7:37:16 PM,VotreNom,2.36549400076186,48.8680089499083
323,15044,15044 - J DUPRE,65 RUE DANTZIG - 75015 PARIS,48.83026939,2.29600808,OPEN,33,30,3,1,1,5/16/2013 7:02:58 PM,5/15/2013 7:37:16 PM,VotreNom,5/16/2013 7:03:41 PM,VotreNom,2.29600807608667,48.8302693902879
324,35003,35003 - VAILLANT (PANTIN),ANGLE RUE GENERAL GOSSERAND ET AVENUE EDOUARD VAILLANT - 93500 PANTIN,48.90269162,2.39325583,OPEN,20,10,10,0,1,5/16/2013 7:02:04 PM,5/15/2013 7:37:16 PM,VotreNom,5/16/2013 7:02:40 PM,VotreNom,2.39325582933415,48.9026916179815
325,21202,21202 - BARBES (MONTROUGE),16 RUE BARBES - 92120 MONTROUGE,48.81724491,2.327506,OPEN,34,31,2,0,1,5/16/2013 6:59:51 PM,5/15/2013 7:37:16 PM,VotreNom,5/16/2013 7:00:40 PM,VotreNom,2.32750599924384,48.8172449116699
326,2012,02012 - QUATRE SEPTEMBRE,10 RUE DE CHOISEUL - 75002 PARIS,48.86996973,2.33603946,OPEN,42,34,7,0,1,5/16/2013 7:04:24 PM,5/15/2013 7:37:16 PM,VotreNom,5/16/2013 7:05:41 PM,VotreNom,2.33603945554213,48.8699697339689
327,34008,34008 - GARIBALDI (SAINT OUEN),FACE AU 4 AVENUE GARIBALDI / AVENUE GABRIEL PERI - 93400 SAINT OUEN,48.90573508,2.33149746,OPEN,25,1,24,0,1,5/16/2013 7:05:08 PM,5/15/2013 7:37:16 PM,VotreNom,5/16/2013 7:05:41 PM,VotreNom,2.33149745979217,48.9057350760539
328,17102,17102 - ALFRED ROLL,14 RUE ALFRED ROLL - 75017 PARIS,48.88784949,2.3000344,OPEN,33,25,8,0,1,5/16/2013 7:04:06 PM,5/15/2013 7:37:16 PM,VotreNom,5/16/2013 7:04:39 PM,VotreNom,2.30003439797792,48.8878494938401
329,21005,21005 - MORIZET (BOULOGNE-BILLANCOURT),20 AVENUE ANDRE MORIZET - 92100 BOULOGNE-BILLANCOURT,48.83495398,2.24168825,OPEN,25,10,15,0,1,5/16/2013 7:05:01 PM,5/15/2013 7:37:16 PM,VotreNom,5/16/2013 7:05:41 PM,VotreNom,2.24168824710239,48.8349539796647
330,8017,08017 - ROCHER,14 RUE ROCHER - 75008 PARIS,48.87607933,2.32273156,OPEN,64,41,22,0,1,5/16/2013 7:05:15 PM,5/15/2013 7:37:16 PM,VotreNom,5/16/2013 7:05:41 PM,VotreNom,2.32273156204932,48.8760793292261
331,6008,06008 - ASSAS LUXEMBOURG,90 RUE D'ASSAS - 75006 PARIS,48.84373447,2.33342838,OPEN,33,31,2,0,1,5/16/2013 7:04:41 PM,5/15/2013 7:37:16 PM,VotreNom,5/16/2013 7:05:41 PM,VotreNom,2.3334283818759,48.8437344687794
332,906,00906 - GARE DE L'EST,GARDE DE L'EST-PARVIS GARE DE L'EST - 75010 PARIS,48.87641981,2.35863006,OPEN,20,11,9,0,1,5/16/2013 7:04:36 PM,5/15/2013 7:37:16 PM,VotreNom,5/16/2013 7:05:41 PM,VotreNom,2.35863006454465,48.8764198136411
333,18014,18014 - DOUDEAUVILLE LEON,26 RUE LEON - 75018 PARIS,48.88832422,2.35357337,OPEN,7,5,2,0,1,5/16/2013 7:04:26 PM,5/15/2013 7:37:16 PM,VotreNom,5/16/2013 7:05:41 PM,VotreNom,2.35357337263862,48.8883242184522
334,15067,15067 - DESAIX,23 RUE DESAIX - 75015 PARIS,48.8528046,2.29307703,OPEN,12,0,8,0,1,5/16/2013 7:02:18 PM,5/15/2013 7:37:16 PM,VotreNom,5/16/2013 7:02:40 PM,VotreNom,2.29307702985724,48.8528046049403
335,18025,18025 - MAIRIE DU 18 EME,81 RUE MONT-CENIS - 75018 PARIS,48.89292565,2.34451792,OPEN,39,24,14,0,1,5/16/2013 7:05:22 PM,5/15/2013 7:37:16 PM,VotreNom,5/16/2013 7:05:41 PM,VotreNom,2.3445179211627,48.8929256534326
336,6017,06017 - SENAT CONDE,34 RUE CONDE - 75006 PARIS,48.84958,2.33784844,OPEN,34,18,15,0,1,5/16/2013 7:04:03 PM,5/15/2013 7:37:16 PM,VotreNom,5/16/2013 7:04:39 PM,VotreNom,2.33784843717955,48.8495800021863
337,8004,08004 - MALESHERBES PASQUIER,FACE 4 BD MALESHERBES - 75008 PARIS,48.87042188,2.32328899,OPEN,64,47,14,0,1,5/16/2013 7:04:35 PM,5/15/2013 7:37:16 PM,VotreNom,5/16/2013 7:05:41 PM,VotreNom,2.32328899479172,48.8704218834336
338,15008,15008 - SEVRES LECOURBE,FACE 4 BOULEVARD PASTEUR - 75015 PARIS,48.84483802,2.31108551,OPEN,62,8,52,0,1,5/16/2013 7:01:27 PM,5/15/2013 7:37:16 PM,VotreNom,5/16/2013 7:02:40 PM,VotreNom,2.31108550609411,48.8448380192271
339,20001,20001 - PLACE DE LA NATION,1 COURS DE VINCENNES - 75020 PARIS,48.84836467,2.39976239,OPEN,36,33,2,0,1,5/16/2013 6:59:59 PM,5/15/2013 7:37:16 PM,VotreNom,5/16/2013 7:00:40 PM,VotreNom,2.39976238598131,48.8483646677768
340,7001,07001 - DUROC,63 BOULEVARD DES INVALIDES - 75007 PARIS,48.84776986,2.31618389,OPEN,45,20,23,0,1,5/16/2013 7:04:54 PM,5/15/2013 7:37:16 PM,VotreNom,5/16/2013 7:05:41 PM,VotreNom,2.31618388672947,48.8477698568288
341,18028,18028 - VAUVENARGUES,195 RUE CHAMPIONNET - 75018 PARIS,48.89405725,2.33219934,OPEN,33,23,9,0,1,5/16/2013 7:04:02 PM,5/15/2013 7:37:16 PM,VotreNom,5/16/2013 7:04:39 PM,VotreNom,2.33219933598,48.894057251327
342,21211,21211 - MARNE (MONTROUGE),100 AVENUE DE LA MARNE - 92120 MONTROUGE,48.81174982,2.30316989,OPEN,38,34,2,1,1,5/16/2013 6:57:13 PM,5/15/2013 7:37:16 PM,VotreNom,5/16/2013 6:57:39 PM,VotreNom,2.3031698876278,48.8117498213108
343,10161,10161 - GARE DE L'EST,FACE 129 RUE DU FBG SAINT MARTIN - 75010 PARIS,48.87567011,2.35950994,OPEN,34,30,4,0,1,5/16/2013 7:04:26 PM,5/15/2013 7:37:16 PM,VotreNom,5/16/2013 7:05:41 PM,VotreNom,2.35950993759231,48.8756701124814
344,7102,07102 - SAINTE CLOTHILDE,FACE 19 RUE CASIMIR PERIER - 75007 PARIS,48.85782911,2.31914905,OPEN,42,42,0,0,1,5/16/2013 6:56:57 PM,5/15/2013 7:37:16 PM,VotreNom,5/16/2013 6:57:39 PM,VotreNom,2.31914905257934,48.8578291107093
345,1102,01102 - FRANCAISE,6 RUE FRANCAISE - 75001 PARIS,48.86406505,2.34759791,OPEN,18,0,18,0,1,5/16/2013 6:56:13 PM,5/15/2013 7:37:16 PM,VotreNom,5/16/2013 6:56:39 PM,VotreNom,2.34759791271646,48.8640650469499
346,8015,08015 - ROQUEPINE,4 RUE ROQUEPINE - 75008 PARIS,48.87348617,2.32028123,OPEN,44,41,2,0,1,5/16/2013 6:55:22 PM,5/15/2013 7:37:16 PM,VotreNom,5/16/2013 6:55:39 PM,VotreNom,2.32028123421067,48.8734861693498
347,18023,18023 - POISSONNIERS ORDENER,57 RUE ORDENER - 75018 PARIS,48.89121389,2.35128867,OPEN,34,18,16,0,1,5/16/2013 7:01:33 PM,5/15/2013 7:37:16 PM,VotreNom,5/16/2013 7:02:40 PM,VotreNom,2.35128866621996,48.8912138908446
348,7016,07016 - TOUR MAUBOURG UNIVERSITE,13 RUE SURCOUF - 75007 PARIS,48.86127302,2.30945355,OPEN,58,24,34,0,1,5/16/2013 6:59:51 PM,5/15/2013 7:37:16 PM,VotreNom,5/16/2013 7:00:40 PM,VotreNom,2.30945355091422,48.8612730162781
349,12004,12004 - TRAVERSIERE,76 RUE TRAVERSIERE - 75012 PARIS,48.85073582,2.37587011,OPEN,33,0,33,0,1,5/16/2013 7:05:13 PM,5/15/2013 7:37:16 PM,VotreNom,5/16/2013 7:05:41 PM,VotreNom,2.37587011170627,48.8507358241288
350,12034,12034 - PIROGUES DE BERCY,20 RUE DES PIROGUES DE BERCY - 75012 PARIS,48.83230839,2.38637028,OPEN,48,21,25,0,1,5/16/2013 7:04:23 PM,5/15/2013 7:37:16 PM,VotreNom,5/16/2013 7:04:39 PM,VotreNom,2.38637027856881,48.8323083893665
351,11028,11028 - BLUETS REPUBLIQUE,FACE 20 RUE GUILLAUME BERTRAND - 75011 PARIS,48.86382517,2.38090638,OPEN,36,33,3,0,1,5/16/2013 7:01:09 PM,5/15/2013 7:37:16 PM,VotreNom,5/16/2013 7:01:40 PM,VotreNom,2.38090637715497,48.8638251743415
352,12014,12014 - NATION,16 PLACE DE LA NATION SUR TPC - 75012 PARIS,48.8473018,2.39552056,OPEN,66,54,9,0,1,5/16/2013 7:04:40 PM,5/15/2013 7:37:16 PM,VotreNom,5/16/2013 7:05:41 PM,VotreNom,2.39552056485835,48.8473018000091
353,17029,17029 - PLACE AIMÉE MAILLART,29 RUE PIERRE DEMOURS - 75017 PARIS,48.8814111,2.2948282,OPEN,36,16,20,0,1,5/16/2013 7:02:30 PM,5/15/2013 7:37:16 PM,VotreNom,5/16/2013 7:03:41 PM,VotreNom,2.29482820074442,48.8814111012194
354,6016,06016 - DANTON,11 RUE DANTON - 75006 PARIS,48.85239301,2.34144252,OPEN,21,10,11,0,1,5/16/2013 7:05:23 PM,5/15/2013 7:37:16 PM,VotreNom,5/16/2013 7:05:41 PM,VotreNom,2.34144252246853,48.8523930093114
355,8039,08039 - COLISEE,6 RUE DU COLISEE - 75008 PARIS,48.87048194,2.30766254,OPEN,24,22,2,0,1,5/16/2013 7:03:47 PM,5/15/2013 7:37:16 PM,VotreNom,5/16/2013 7:04:39 PM,VotreNom,2.30766254015218,48.8704819385523
356,15045,15045 - PLAINE,AVENUE DE LA PORTE DE LA PLAINE - 75015 PARIS,48.82817494,2.29258752,OPEN,36,28,8,0,1,5/16/2013 6:58:17 PM,5/15/2013 7:37:16 PM,VotreNom,5/16/2013 6:58:39 PM,VotreNom,2.29258752254827,48.8281749363659
357,16026,16026 - RANELAGH,91 RUE DU RANELAGH - 75016 PARIS,48.85548488,2.27040866,OPEN,23,18,4,0,1,5/16/2013 6:59:35 PM,5/15/2013 7:37:16 PM,VotreNom,5/16/2013 7:00:40 PM,VotreNom,2.27040865739573,48.8554848837201
358,21109,21109 - GUICHET (CLICHY),12BIS RUE DU GUICHET - 92110 CLICHY,48.905137,2.30250316,OPEN,18,7,11,0,1,5/16/2013 7:02:17 PM,5/15/2013 7:37:16 PM,VotreNom,5/16/2013 7:02:40 PM,VotreNom,2.30250316058132,48.9051370039686
359,42004,42004 - COUTURIER (IVRY),30 RUE PAUL VAILLANT COUTURIER -  94200 IVRY SUR SEINE,48.81901272,2.39671917,OPEN,27,6,17,0,1,5/16/2013 7:01:12 PM,5/15/2013 7:37:16 PM,VotreNom,5/16/2013 7:01:40 PM,VotreNom,2.39671917244269,48.8190127185084
360,16011,16011 - VICTOR HUGO RUE DE LA POMPE,118 AVENUE VICTOR HUGO - 75016 PARIS,48.86810889,2.28147752,OPEN,26,37,1,0,1,5/16/2013 7:04:03 PM,5/15/2013 7:37:16 PM,VotreNom,5/16/2013 7:04:39 PM,VotreNom,2.28147752241717,48.8681088868974
361,14037,14037 - JEAN MOULIN,56 AVENUE JEAN MOULIN - 75014 PARIS,48.82570982,2.32184999,OPEN,33,30,3,0,1,5/16/2013 7:03:43 PM,5/15/2013 7:37:16 PM,VotreNom,5/16/2013 7:04:39 PM,VotreNom,2.32184998734427,48.8257098170281
362,20021,20021 - PRAIRIE L INDRE,2 RUE DE L'INDRE - 75020 PARIS,48.86272646,2.40335131,OPEN,36,30,6,1,1,5/16/2013 7:02:43 PM,5/15/2013 7:37:16 PM,VotreNom,5/16/2013 7:03:41 PM,VotreNom,2.40335131100077,48.8627264627458
363,21102,21102 - NATIONS UNIES (CLICHY),PLACE DES NATIONS UNIES - 92110 CLICHY,48.89710985,2.3099005,OPEN,25,17,8,0,1,5/16/2013 7:01:57 PM,5/15/2013 7:37:16 PM,VotreNom,5/16/2013 7:02:40 PM,VotreNom,2.30990049821371,48.8971098501329
364,22101,22101 - GARE ROUTIERE ( SAINT CLOUD),GARE ROUTIERE - ARRET TRAM - 92210 SAINT CLOUD,48.84312621,2.22218924,OPEN,50,49,1,0,1,5/16/2013 6:56:14 PM,5/15/2013 7:37:16 PM,VotreNom,5/16/2013 6:56:39 PM,VotreNom,2.2221892356808,48.843126205967
365,10010,10010 - JACQUES BONSERGENT,FACE 8 PLACE JACQUES BONSERGENT - 75010 PARIS,48.87099999,2.36114144,OPEN,33,0,27,0,1,5/16/2013 7:01:34 PM,5/15/2013 7:37:16 PM,VotreNom,5/16/2013 7:02:40 PM,VotreNom,2.36114143657491,48.8709999898214
366,10013,10013 - SAINT LOUIS,2 RUE ALIBERT - 75010 PARIS,48.87113995,2.36628044,OPEN,59,1,58,0,1,5/16/2013 7:01:04 PM,5/15/2013 7:37:16 PM,VotreNom,5/16/2013 7:01:40 PM,VotreNom,2.36628044396992,48.8711399497047
367,15010,15010 - CAMBRONNE,FACE 3 BD GARIBALDI - 75015 PARIS,48.84757532,2.3028631,OPEN,59,3,56,0,1,5/16/2013 7:02:31 PM,5/15/2013 7:37:16 PM,VotreNom,5/16/2013 7:03:41 PM,VotreNom,2.3028631005018,48.8475753214674
368,9009,09009 - SQUARE MONTHOLON,26 RUE MONTHOLON - 75009 PARIS,48.87660117,2.34578552,OPEN,21,7,14,0,1,5/16/2013 6:58:24 PM,5/15/2013 7:37:16 PM,VotreNom,5/16/2013 6:58:39 PM,VotreNom,2.34578551680324,48.8766011713627
369,14024,14024 - RAYMOND LAUSSERAND,RUE VERCINGETORIX - 75014 PARIS,48.82798949,2.30567211,OPEN,24,23,1,0,1,5/16/2013 7:00:39 PM,5/15/2013 7:37:16 PM,VotreNom,5/16/2013 7:01:40 PM,VotreNom,2.30567210645887,48.827989487366
370,23004,23004 - COUTURIER 2 (LEVALLOIS),109 RUE  PAUL VAILLANT COUTURIER - 92300 LEVALLOIS,48.89819702,2.29384802,OPEN,35,12,22,0,1,5/16/2013 7:04:44 PM,5/15/2013 7:37:16 PM,VotreNom,5/16/2013 7:05:41 PM,VotreNom,2.2938480179741,48.8981970226357
371,42202,42202 - RONSARD (CHARENTON),1 RUE  KENNEDY / ALLEE RONSARD - 94220 CHARENTON,48.82273601,2.4056592,OPEN,23,12,11,0,1,5/16/2013 7:05:23 PM,5/15/2013 7:37:16 PM,VotreNom,5/16/2013 7:05:41 PM,VotreNom,2.40565920320751,48.8227360120977
372,13030,13030 - ITALIE TOLBIAC,88 AVENUE D'ITALIE - 75013 PARIS,48.82583946,2.35721536,OPEN,40,31,8,0,1,5/16/2013 7:03:54 PM,5/15/2013 7:37:16 PM,VotreNom,5/16/2013 7:04:39 PM,VotreNom,2.35721535750814,48.8258394606983
373,15115,15115 - VAUGIRARD,25-31 BOULEVARD DE VAUGIRARD - 75015 PARIS,48.84132526,2.31829155,OPEN,48,47,1,0,1,5/16/2013 6:59:33 PM,5/15/2013 7:37:16 PM,VotreNom,5/16/2013 7:00:40 PM,VotreNom,2.31829155159273,48.841325259808
374,15051,15051 - ROLLET,1 PLACE HENRI ROLLET - 75015 PARIS,48.835981,2.29346712,OPEN,8,1,6,0,1,5/16/2013 7:00:12 PM,5/15/2013 7:37:16 PM,VotreNom,5/16/2013 7:00:40 PM,VotreNom,2.29346711912864,48.835981004456
375,10111,10111 - BOURSE DU TRAVAIL,100 QUAI DE JEMMAPES - 75010 PARIS,48.8734628,2.36403506,OPEN,21,0,21,0,1,5/16/2013 7:04:59 PM,5/15/2013 7:37:16 PM,VotreNom,5/16/2013 7:05:41 PM,VotreNom,2.36403505925043,48.8734627987082
376,3011,03011 - TURBIGO,55 RUE TURBIGO - 75003 PARIS,48.86558419,2.35627845,OPEN,31,0,31,0,1,5/16/2013 7:05:14 PM,5/15/2013 7:37:16 PM,VotreNom,5/16/2013 7:05:41 PM,VotreNom,2.35627844763363,48.8655841910852
377,1011,01011 - RIVOLI MAIRIE DU 1ER,36 RUE DE L'ARBRE SEC - 75001 PARIS,48.8602471,2.34230265,OPEN,20,12,8,0,1,5/16/2013 7:03:35 PM,5/15/2013 7:37:16 PM,VotreNom,5/16/2013 7:04:39 PM,VotreNom,2.34230264572559,48.8602470954154
378,4012,04012 - ECOUFFES RIVOLI,2 RUE TIRON - 75004 PARIS,48.85579664,2.35790788,OPEN,28,4,23,0,1,5/16/2013 7:03:15 PM,5/15/2013 7:37:16 PM,VotreNom,5/16/2013 7:03:41 PM,VotreNom,2.3579078821352,48.8557966374038
379,17045,17045 - PLACE DES TERNES - 5,5 PLACE DES TERNES - 75017 PARIS,48.87841039,2.29783106,OPEN,23,15,27,0,1,5/16/2013 7:05:17 PM,5/15/2013 7:37:16 PM,VotreNom,5/16/2013 7:05:41 PM,VotreNom,2.29783106471364,48.8784103864828
380,2002,02002 - MONTORGUEIL ETIENNE MARCEL,32 RUE ETIENNE MARCEL - 75002 PARIS,48.86458238,2.34628211,OPEN,28,0,28,0,1,5/16/2013 6:55:30 PM,5/15/2013 7:37:16 PM,VotreNom,5/16/2013 6:56:39 PM,VotreNom,2.34628211166702,48.8645823774649
381,33012,33012 - LANDY (AUBERVILLIERS),FACE 2 RUE DU LANDY - 93300 AUBERVILLIERS,48.91515618,2.37642401,OPEN,30,27,3,0,1,5/16/2013 7:05:15 PM,5/15/2013 7:37:16 PM,VotreNom,5/16/2013 7:05:41 PM,VotreNom,2.37642400951408,48.9151561828132
382,5105,05105 - GEOFFROY SAINT HILAIRE,8 RUE GEOFFROY SAINT HILAIRE - 75005 PARIS,48.83907826,2.35687734,OPEN,17,0,17,0,1,5/16/2013 6:57:56 PM,5/15/2013 7:37:16 PM,VotreNom,5/16/2013 6:58:39 PM,VotreNom,2.35687734066974,48.8390782642497
383,23005,23005 - BRIAND (LEVALLOIS),152 RUE ARISTIDE BRIAND - 92300 LEVALLOIS,48.89605105,2.29683625,OPEN,25,7,17,0,1,5/16/2013 7:03:16 PM,5/15/2013 7:37:16 PM,VotreNom,5/16/2013 7:03:41 PM,VotreNom,2.29683625151338,48.8960510463765
384,9038,09038 - SQUARE BERLIOZ,50 BIS RUE DOUAI - 75009 PARIS,48.88320784,2.33084995,OPEN,27,8,19,0,1,5/16/2013 7:03:17 PM,5/15/2013 7:37:16 PM,VotreNom,5/16/2013 7:03:41 PM,VotreNom,2.33084994902856,48.883207841228
385,13001,13001 - PORT ROYAL,51 BOULEVARD PORT ROYAL - 75013 PARIS,48.83772792,2.34466404,OPEN,18,2,14,0,1,5/16/2013 7:04:50 PM,5/15/2013 7:37:16 PM,VotreNom,5/16/2013 7:05:41 PM,VotreNom,2.3446640434263,48.8377279209782
386,18043,18043 - BLANCHE,55 BOULEVARD DE CLICHY - 75018 PARIS,48.88356474,2.33341863,OPEN,20,14,5,1,1,5/16/2013 7:00:42 PM,5/15/2013 7:37:16 PM,VotreNom,5/16/2013 7:01:40 PM,VotreNom,2.33341862941048,48.8835647448547
387,13005,13005 - ARAGO CORDELIERE - VERSION 2,2 RUE DES CORDELIERES - 75013 PARIS,48.83548072,2.34857246,OPEN,47,0,46,0,1,5/16/2013 7:02:45 PM,5/15/2013 7:37:16 PM,VotreNom,5/16/2013 7:03:41 PM,VotreNom,2.34857246170225,48.8354807189661
388,14103,14103 - MAINE LIANCOURT,132 / 136 AVENUE DU MAINE - 75014 PARIS,48.83506436,2.32373145,OPEN,27,26,1,0,1,5/16/2013 7:02:35 PM,5/15/2013 7:37:16 PM,VotreNom,5/16/2013 7:03:41 PM,VotreNom,2.323731449974,48.835064363954
389,19028,19028 - PLACE DES FETES,17 RUE DES FETES - 75019 PARIS,48.87646834,2.39228463,OPEN,20,20,0,1,1,5/16/2013 7:02:56 PM,5/15/2013 7:37:16 PM,VotreNom,5/16/2013 7:03:41 PM,VotreNom,2.39228462978855,48.8764683397332
390,11026,11026 - CHEMIN VERT SAINT MAUR,105 RUE DU CHEMIN VERT - 75011 PARIS,48.86119442,2.3813019,OPEN,46,0,45,0,1,5/16/2013 7:02:40 PM,5/15/2013 7:37:16 PM,VotreNom,5/16/2013 7:03:41 PM,VotreNom,2.38130190492351,48.8611944193302
391,12002,12002 - LACUEE,17 RUE LACUEE - 75012 PARIS,48.84921586,2.37050342,OPEN,16,3,13,0,1,5/16/2013 7:03:13 PM,5/15/2013 7:37:16 PM,VotreNom,5/16/2013 7:03:41 PM,VotreNom,2.37050342386959,48.849215862624
392,10035,10035 - AUBERVILLIERS,1 BOULEVARD DE LA CHAPELLE - 75010 PARIS,48.88434815,2.36416333,OPEN,24,21,3,0,1,5/16/2013 7:00:50 PM,5/15/2013 7:37:16 PM,VotreNom,5/16/2013 7:01:40 PM,VotreNom,2.36416332987426,48.8843481513332
393,11033,11033 - BREGUET SABIN,FACE 23 BD RICHARD LENOIR - 75011 PARIS,48.85687047,2.37055464,OPEN,33,1,31,0,1,5/16/2013 6:58:38 PM,5/15/2013 7:37:16 PM,VotreNom,5/16/2013 6:59:44 PM,VotreNom,2.37055463986152,48.8568704677583
394,19014,19014 - LORRAINE,28 RUE DE LORRAINE - 75019 PARIS,48.88633508,2.3824612,OPEN,18,2,15,0,1,5/16/2013 7:05:22 PM,5/15/2013 7:37:16 PM,VotreNom,5/16/2013 7:05:41 PM,VotreNom,2.3824612005577,48.8863350826153
395,5015,05015 - MOUFFETARD EPEE DE BOIS,12 RUE DE L'EPEE DE BOIS - 75005 PARIS,48.84150764,2.34998305,OPEN,63,28,28,0,1,5/16/2013 7:04:57 PM,5/15/2013 7:37:16 PM,VotreNom,5/16/2013 7:05:41 PM,VotreNom,2.3499830470298,48.8415076373901
396,19046,19046 - PORTE DE PANTIN,3 PLACE DE LA PORTE DE PANTIN - 75019 PARIS,48.88904007,2.39528946,OPEN,33,32,1,0,1,5/16/2013 7:01:56 PM,5/15/2013 7:37:16 PM,VotreNom,5/16/2013 7:02:40 PM,VotreNom,2.39528946179637,48.8890400680669
397,10033,10033 - LARIBOISIERE,15 RUE SAINT VINCENT DE PAUL - 75010 PARIS,48.88095574,2.35243051,OPEN,24,24,0,0,1,5/16/2013 7:03:44 PM,5/15/2013 7:37:16 PM,VotreNom,5/16/2013 7:04:39 PM,VotreNom,2.35243051483853,48.8809557416478
398,20014,20014 - ALEXANDRE DUMAS,142 BD CHARONNE - 75020 PARIS,48.85616738,2.39482501,OPEN,33,22,10,0,1,5/16/2013 7:05:21 PM,5/15/2013 7:37:16 PM,VotreNom,5/16/2013 7:05:41 PM,VotreNom,2.39482500935474,48.8561673795634
399,17046,17046 - MAC MAHON,18 AVENUE MARC MAHON - 75017 PARIS,48.87753208,2.29451254,OPEN,25,16,8,0,1,5/16/2013 7:05:22 PM,5/15/2013 7:37:16 PM,VotreNom,5/16/2013 7:05:41 PM,VotreNom,2.29451253605297,48.8775320841303
400,9014,09014 - FAUBOURG MONTMARTRE,55 RUE DU FAUBOURG MONTMARTRE - 75009 PARIS,48.87532972,2.34077266,OPEN,34,5,27,0,1,5/16/2013 7:05:06 PM,5/15/2013 7:37:16 PM,VotreNom,5/16/2013 7:05:41 PM,VotreNom,2.34077266233143,48.8753297231533
401,13034,13034 - EDISON,54 AVENUE EDISON - 75013 PARIS,48.82902667,2.36106902,OPEN,18,6,11,0,1,5/16/2013 7:05:03 PM,5/15/2013 7:37:16 PM,VotreNom,5/16/2013 7:05:41 PM,VotreNom,2.36106902408944,48.8290266697347
402,22405,22405 - NORD (MALAKOFF),ANGLE PASSAGE DU NORD / GABRIEL PERI - 92240 MALAKOFF,48.81933916,2.30047687,OPEN,25,24,1,0,1,5/16/2013 7:04:49 PM,5/15/2013 7:37:16 PM,VotreNom,5/16/2013 7:05:41 PM,VotreNom,2.30047686504795,48.8193391584096
403,11010,11010 - ST ANTOINE GONNET,1 RUE DES BOULETS - 75011 PARIS,48.84925926,2.39175461,OPEN,41,28,13,0,1,5/16/2013 7:02:41 PM,5/15/2013 7:37:16 PM,VotreNom,5/16/2013 7:03:41 PM,VotreNom,2.39175461419432,48.8492592621152
404,19113,19113 - PRE ST GERVAIS,27 RUE DU PRE SAINT GERVAIS - 75019 PARIS,48.87792341,2.39598555,OPEN,28,28,0,1,1,5/16/2013 6:57:02 PM,5/15/2013 7:37:16 PM,VotreNom,5/16/2013 6:57:39 PM,VotreNom,2.3959855536242,48.8779234119252
405,20017,20017 - RUE SAINT BLAISE,69 RUE SAINT BLAISE - 75020 PARIS,48.85697494,2.40884246,OPEN,27,18,9,0,1,5/16/2013 7:01:06 PM,5/15/2013 7:37:16 PM,VotreNom,5/16/2013 7:01:40 PM,VotreNom,2.40884245740696,48.8569749400318
406,3101,03101 - PORTE SAINT MARTIN,62 RUE MESLAY - 75003 PARIS,48.86863641,2.35559159,OPEN,34,0,34,0,1,5/16/2013 6:58:38 PM,5/15/2013 7:37:16 PM,VotreNom,5/16/2013 6:59:44 PM,VotreNom,2.35559159277857,48.8686364050256
407,9033,09033 - HAVRE CAUMARTIN,FACE 45 RUE CAUMARTIN - 75009 PARIS,48.87279502,2.32831574,OPEN,51,26,24,0,1,5/16/2013 7:02:54 PM,5/15/2013 7:37:16 PM,VotreNom,5/16/2013 7:03:41 PM,VotreNom,2.32831574261618,48.8727950198727
408,3005,03005 - TURBIGO SAINTE ELISABETH,7 RUE SAINTE ELISABETH - 75003 PARIS,48.86613722,2.35966114,OPEN,33,0,32,0,1,5/16/2013 7:04:38 PM,5/15/2013 7:37:16 PM,VotreNom,5/16/2013 7:05:41 PM,VotreNom,2.3596611436265,48.8661372245835
409,6004,06004 - REGARD,19 RUE DU REGARD - 75006 PARIS,48.84751783,2.32697331,OPEN,44,29,14,0,1,5/16/2013 7:04:32 PM,5/15/2013 7:37:16 PM,VotreNom,5/16/2013 7:05:41 PM,VotreNom,2.32697330558687,48.847517829442
410,11013,11013 - NATION VOLAIRE,5 PLACE DE LA NATION - 75011 PARIS,48.84927664,2.39493448,OPEN,46,30,15,0,1,5/16/2013 7:03:48 PM,5/15/2013 7:37:16 PM,VotreNom,5/16/2013 7:04:39 PM,VotreNom,2.3949344777501,48.8492766381855
411,13013,13013 - SAINT MARCEL,3 BD SAINT MARCEL - 75013 PARIS,48.83950442,2.36098942,OPEN,21,3,18,0,1,5/16/2013 7:04:27 PM,5/15/2013 7:37:16 PM,VotreNom,5/16/2013 7:05:41 PM,VotreNom,2.36098941702292,48.839504424583
412,5006,05006 - SAINT JACQUES SOUFFLOT,174 RUE SAINT JACQUES - 75005 PARIS,48.84651692,2.3431238,OPEN,13,11,2,1,1,5/16/2013 7:01:06 PM,5/15/2013 7:37:16 PM,VotreNom,5/16/2013 7:01:40 PM,VotreNom,2.34312380336733,48.8465169205869
413,18104,18104 - CHAPELLE,2 IMPASSE DE LA CHAPELLE - 75018 PARIS,48.89265689,2.35943545,OPEN,17,8,9,0,1,5/16/2013 7:05:21 PM,5/15/2013 7:37:16 PM,VotreNom,5/16/2013 7:05:41 PM,VotreNom,2.35943545490189,48.8926568919912
414,9025,09025 - TAITBOUT CHÂTEAUDUN,77 RUE TAITBOUT - 75009 PARIS,48.87638397,2.33535668,OPEN,38,27,10,0,1,5/16/2013 7:04:58 PM,5/15/2013 7:37:16 PM,VotreNom,5/16/2013 7:05:41 PM,VotreNom,2.33535667793352,48.8763839693791
415,41603,41603 - PASTEUR (SAINT MANDE),AVENUE PASTEUR/AVENUE DE PARIS - 94160 SAINT MANDE,48.84577922,2.4237706,OPEN,19,19,0,0,1,5/16/2013 6:56:59 PM,5/15/2013 7:37:16 PM,VotreNom,5/16/2013 6:57:39 PM,VotreNom,2.42377059524055,48.8457792191646
416,11012,11012 - MONTREUIL VOLTAIRE,93 RUE DE MONTREUIL - 75011 PARIS,48.85050701,2.39307556,OPEN,33,22,11,0,1,5/16/2013 7:00:39 PM,5/15/2013 7:37:16 PM,VotreNom,5/16/2013 7:01:40 PM,VotreNom,2.3930755582745,48.8505070118419
417,21113,21113 - PETIT (CLICHY),2 RUE PETIT - 92110 CLICHY,48.89934835,2.29662648,OPEN,25,13,12,0,1,5/16/2013 7:05:09 PM,5/15/2013 7:37:16 PM,VotreNom,5/16/2013 7:05:41 PM,VotreNom,2.29662648341284,48.8993483537726
418,15004,15004 - VAUGIRARD PASTEUR,DEV 71 BOULEVARD DE VAUGIRARD - 75015 PARIS,48.84059587,2.31536304,OPEN,21,18,2,0,1,5/16/2013 6:56:33 PM,5/15/2013 7:37:16 PM,VotreNom,5/16/2013 6:57:39 PM,VotreNom,2.31536303820297,48.8405958674037
419,41605,41605 - GENERAL DE GAULLE 2 (SAINT MANDE),120 AVENUE GENERAL DE GAULLE - 94160 SAINT MANDE,48.83608868,2.41890759,OPEN,22,2,20,0,1,5/16/2013 6:57:30 PM,5/15/2013 7:37:16 PM,VotreNom,5/16/2013 6:58:39 PM,VotreNom,2.4189075947237,48.8360886795229
420,42203,42203 - ELUARD (CHARENTON),FACE AU 7 RUE PAUL ELUARD - 94220 CHARENTON,48.82040389,2.40840547,OPEN,32,2,29,0,1,5/16/2013 7:00:54 PM,5/15/2013 7:37:16 PM,VotreNom,5/16/2013 7:01:40 PM,VotreNom,2.40840547215673,48.8204038940089
421,20109,20109 - SURMELIN HAXO,2 RUE HAXO - 75020 PARIS,48.86943708,2.40539658,OPEN,21,19,2,1,1,5/16/2013 7:01:38 PM,5/15/2013 7:37:16 PM,VotreNom,5/16/2013 7:02:40 PM,VotreNom,2.4053965753798,48.8694370761222
422,2013,02013 - RICHELIEU DROUOT,20 RUE FAVART - 75002 PARIS,48.87144635,2.33829011,OPEN,17,17,0,0,1,5/16/2013 6:59:22 PM,5/15/2013 7:37:16 PM,VotreNom,5/16/2013 6:59:44 PM,VotreNom,2.33829010585083,48.8714463539211
423,8102,08102 - LAMENAIS WASHINGTON,1 RUE LAMENNAIS - 75008 PARIS,48.87355533,2.30328867,OPEN,26,26,0,0,1,5/16/2013 7:02:26 PM,5/15/2013 7:37:16 PM,VotreNom,5/16/2013 7:03:41 PM,VotreNom,2.30328866612517,48.8735553344888
424,13120,13120 - VITRY DESAULT,RUE PIERRE ET JOSEPH DESAULT - 75013 PARIS,48.82113875,2.37871861,OPEN,19,0,19,0,1,5/16/2013 6:58:02 PM,5/15/2013 7:37:16 PM,VotreNom,5/16/2013 6:58:39 PM,VotreNom,2.37871860660867,48.8211387514377
425,35012,35012 - CANDALE (PANTIN),FACE AU 12 RUE CANDALE - 93500 PANTIN,48.88948584,2.41430752,OPEN,25,18,7,0,1,5/16/2013 7:04:47 PM,5/15/2013 7:37:16 PM,VotreNom,5/16/2013 7:05:41 PM,VotreNom,2.41430751511131,48.8894858401957
426,10032,10032 - DODU,N° 12-14 RUE CLAUDE VELLEFAUX- 75010 PARIS,48.87285914,2.37007171,OPEN,32,20,11,0,1,5/16/2013 7:00:38 PM,5/15/2013 7:37:16 PM,VotreNom,5/16/2013 7:01:40 PM,VotreNom,2.37007170698514,48.8728591390031
427,5013,05013 - ULM ERASME,13 RUE ERASME - 75005 PARIS,48.84254795,2.34459665,OPEN,20,20,0,1,1,5/16/2013 7:02:46 PM,5/15/2013 7:37:16 PM,VotreNom,5/16/2013 7:03:41 PM,VotreNom,2.34459664993159,48.8425479496716
428,13014,13014 - GARE D'AUSTERLITZ,5 BIS BOULEVARD DE L'HOPITAL - 75013 PARIS,48.84252449,2.36404496,OPEN,14,0,14,0,1,5/16/2013 7:00:26 PM,5/15/2013 7:37:16 PM,VotreNom,5/16/2013 7:01:40 PM,VotreNom,2.36404495865656,48.8425244907662
429,1026,01026 - COLONEL DRIANT,PLACE DU LIEUTENANT HENRI KARCHER - 75001 PARIS,48.8634305,2.34016977,OPEN,31,27,4,0,1,5/16/2013 7:04:37 PM,5/15/2013 7:37:16 PM,VotreNom,5/16/2013 7:05:41 PM,VotreNom,2.34016976701767,48.8634305019412
430,32001,32001 - PROUDHON (SAINT DENIS),AVENUE PRESIDENT WILSON / RUE PROUDHON - 93200 SAINT DENIS,48.90646937,2.35844205,OPEN,33,28,14,0,1,5/16/2013 7:04:38 PM,5/15/2013 7:37:16 PM,VotreNom,5/16/2013 7:05:41 PM,VotreNom,2.35844205395494,48.9064693732438
431,7023,07023 - BOURDONNAIS TOUR EIFFEL,QUAI BRANLY - 75007 PARIS,48.8608978,2.2955996,OPEN,60,40,20,0,1,5/16/2013 7:02:20 PM,5/15/2013 7:37:16 PM,VotreNom,5/16/2013 7:02:40 PM,VotreNom,2.29559959844703,48.860897797941
432,19021,19021 - MAIRIE DU 19 EME,4 RUE ARMAND CARREL - 75019 PARIS,48.88259147,2.38122061,OPEN,25,20,3,0,1,5/16/2013 7:04:13 PM,5/15/2013 7:37:16 PM,VotreNom,5/16/2013 7:04:39 PM,VotreNom,2.38122061028935,48.882591466689
433,15102,15102 - SQUARE BELA BARTOK,QUAI DE GRENELLE - 75015 PARIS,48.85116724,2.28460761,OPEN,23,0,23,0,1,5/16/2013 7:04:10 PM,5/15/2013 7:37:16 PM,VotreNom,5/16/2013 7:04:39 PM,VotreNom,2.28460760756776,48.8511672406797
434,9101,09101 - CADET LA FAYETTE,24-26 RUE CADET - 75009 PARIS,48.87563967,2.34352359,OPEN,19,0,19,0,1,5/16/2013 7:00:31 PM,5/15/2013 7:37:16 PM,VotreNom,5/16/2013 7:01:40 PM,VotreNom,2.34352359155479,48.8756396718174
435,10028,10028 - GARE DU NORD DENAN,24 RUE DE DUNKERQUE - 75010 PARIS,48.88037062,2.35282006,OPEN,29,14,15,1,1,5/16/2013 7:04:34 PM,5/15/2013 7:37:16 PM,VotreNom,5/16/2013 7:05:41 PM,VotreNom,2.35282005703125,48.880370620983
436,19010,19010 - PORTE DE LA VILLETTE,RUE EMILE REYNAUD SUR TPC - 75019 PARIS,48.90116411,2.38859073,OPEN,22,0,0,0,1,5/16/2013 7:02:39 PM,5/15/2013 7:37:16 PM,VotreNom,5/16/2013 7:03:41 PM,VotreNom,2.38859073386925,48.9011641133776
437,42014,42014 - CACHIN (IVRY),PLACE MARCEL CACHIN - 94200 IVRY SUR SEINE,48.81414054,2.39090937,OPEN,51,18,33,0,1,5/16/2013 7:03:16 PM,5/15/2013 7:37:16 PM,VotreNom,5/16/2013 7:03:41 PM,VotreNom,2.39090936806714,48.8141405375024
438,10039,10039 - SAMBRE ET MEUSE,37 RUE SAMBRE ET MEUSE - 75010 PARIS,48.87440567,2.37380724,OPEN,24,15,9,0,1,5/16/2013 6:58:34 PM,5/15/2013 7:37:16 PM,VotreNom,5/16/2013 6:59:44 PM,VotreNom,2.37380723799512,48.8744056662172
439,12012,12012 - REUILLY DIDEROT,71 BOULEVARD DIDEROT - 75012 PARIS,48.84729631,2.38570767,OPEN,21,0,21,0,1,5/16/2013 7:01:11 PM,5/15/2013 7:37:16 PM,VotreNom,5/16/2013 7:01:40 PM,VotreNom,2.3857076722177,48.8472963106451
440,8018,08018 - SAINT AUGUSTIN,18 PLACE HENRI BERGSON - 75008 PARIS,48.87620116,2.31979392,OPEN,32,30,2,0,1,5/16/2013 7:02:40 PM,5/15/2013 7:37:16 PM,VotreNom,5/16/2013 7:03:41 PM,VotreNom,2.31979392397258,48.876201162155
